$GNRMC,105334.00,A,3519.91830,N,13920.56337,E,0.003,,150520,,,A*6E
$GNVTG,,T,,M,0.003,N,0.005,K,A*3B
$GNGGA,105334.00,3519.91830,N,13920.56337,E,1,08,2.38,25.5,M,39.0,M,,*7B
$GNGSA,A,3,04,09,06,07,,,,,,,,,3.13,2.38,2.04*1E
$GNGSA,A,3,86,85,70,71,,,,,,,,,3.13,2.38,2.04*10
$GPGSV,2,1,08,04,27,048,46,06,68,004,42,07,06,127,41,09,56,079,44*73
$GPGSV,2,2,08,12,,,18,17,,,32,19,,,26,23,,,45*70
$GPGSV,1,1,04,04,27,048,41,06,68,004,39,07,06,127,33,09,56,079,41*77
$GLGSV,2,1,06,65,04,220,,70,24,033,40,71,76,006,40,72,46,225,23*64
$GLGSV,2,2,06,85,37,131,40,86,75,017,42*61
$GLGSV,2,1,06,65,04,220,14,70,24,033,,71,76,006,32,72,46,225,*61
$GLGSV,2,2,06,85,37,131,40,86,75,017,36*62
$GNGLL,3519.91830,N,13920.56337,E,105334.00,A,A*77
$GNRMC,105335.00,A,3519.91830,N,13920.56343,E,0.010,,150520,,,A*6E
$GNVTG,,T,,M,0.010,N,0.018,K,A*35
$GNGGA,105335.00,3519.91830,N,13920.56343,E,1,08,2.38,25.5,M,39.0,M,,*79
$GNGSA,A,3,04,09,06,07,,,,,,,,,3.13,2.38,2.04*1E
$GNGSA,A,3,86,85,70,71,,,,,,,,,3.13,2.38,2.04*10
$GPGSV,2,1,08,04,27,048,46,06,68,004,42,07,06,127,41,09,56,079,44*73
$GPGSV,2,2,08,12,,,18,17,,,32,19,,,27,23,,,45*71
$GPGSV,1,1,04,04,27,048,41,06,68,004,40,07,06,127,33,09,56,079,42*7A
$GLGSV,2,1,06,65,04,220,,70,24,033,40,71,76,006,40,72,46,225,25*62
$GLGSV,2,2,06,85,37,131,40,86,75,017,42*61
$GLGSV,2,1,06,65,04,220,12,70,24,033,,71,76,006,32,72,46,225,*67
$GLGSV,2,2,06,85,37,131,40,86,75,017,36*62
$GNGLL,3519.91830,N,13920.56343,E,105335.00,A,A*75
$GNRMC,105336.00,A,3519.91830,N,13920.56348,E,0.014,,150520,,,A*62
$GNVTG,,T,,M,0.014,N,0.026,K,A*3C
$GNGGA,105336.00,3519.91830,N,13920.56348,E,1,08,2.38,25.5,M,39.0,M,,*71
$GNGSA,A,3,04,09,06,07,,,,,,,,,3.13,2.38,2.04*1E
$GNGSA,A,3,86,85,70,71,,,,,,,,,3.13,2.38,2.04*10
$GPGSV,2,1,08,04,27,048,46,06,68,004,42,07,06,127,41,09,56,079,44*73
$GPGSV,2,2,08,12,,,19,17,,,33,19,,,27,23,,,45*71
$GPGSV,1,1,04,04,27,048,41,06,68,004,39,07,06,127,33,09,56,079,42*74
$GLGSV,2,1,06,65,04,220,19,70,24,033,40,71,76,006,40,72,46,225,25*6A
$GLGSV,2,2,06,85,37,131,40,86,75,017,41*62
$GLGSV,2,1,06,65,04,220,,70,24,033,,71,76,006,32,72,46,225,*64
$GLGSV,2,2,06,85,37,131,40,86,75,017,36*62
$GNGLL,3519.91830,N,13920.56348,E,105336.00,A,A*7D
$GNRMC,105337.00,A,3519.91830,N,13920.56353,E,0.013,,150520,,,A*6E
$GNVTG,,T,,M,0.013,N,0.023,K,A*3E
$GNGGA,105337.00,3519.91830,N,13920.56353,E,1,08,2.38,25.5,M,39.0,M,,*7A
$GNGSA,A,3,04,09,06,07,,,,,,,,,3.13,2.38,2.04*1E
$GNGSA,A,3,86,85,70,71,,,,,,,,,3.13,2.38,2.04*10
$GPGSV,2,1,08,04,27,048,46,06,68,004,42,07,06,127,41,09,56,079,44*73
$GPGSV,2,2,08,12,,,20,17,,,33,19,,,26,23,,,45*7A
$GPGSV,1,1,04,04,27,048,41,06,68,004,39,07,06,127,33,09,56,079,42*74
$GLGSV,2,1,06,65,04,220,17,70,24,033,40,71,76,006,40,72,46,225,24*65
$GLGSV,2,2,06,85,37,131,39,86,75,017,41*6C
$GLGSV,2,1,06,65,04,220,,70,24,033,,71,76,006,32,72,46,225,*64
$GLGSV,2,2,06,85,37,131,40,86,75,017,37*63
$GNGLL,3519.91830,N,13920.56353,E,105337.00,A,A*76
$GNRMC,105338.00,A,3519.91830,N,13920.56358,E,0.056,,150520,,,A*6B
$GNVTG,,T,,M,0.056,N,0.105,K,A*3A
$GNGGA,105338.00,3519.91830,N,13920.56358,E,1,08,2.38,25.5,M,39.0,M,,*7E
$GNGSA,A,3,04,09,06,07,,,,,,,,,3.13,2.38,2.04*1E
$GNGSA,A,3,86,85,70,71,,,,,,,,,3.13,2.38,2.04*10
$GPGSV,2,1,08,04,27,048,46,06,68,004,42,07,06,127,41,09,56,079,45*72
$GPGSV,2,2,08,12,,,20,17,,,34,19,,,26,23,,,45*7D
$GPGSV,1,1,04,04,27,048,41,06,68,004,39,07,06,127,33,09,56,079,42*74
$GLGSV,2,1,06,65,04,220,17,70,24,033,40,71,76,006,40,72,46,225,21*60
$GLGSV,2,2,06,85,37,131,40,86,75,017,42*61
$GLGSV,2,1,06,65,04,220,,70,24,033,,71,76,006,33,72,46,225,*65
$GLGSV,2,2,06,85,37,131,40,86,75,017,37*63
$GNGLL,3519.91830,N,13920.56358,E,105338.00,A,A*72
$GNRMC,105339.00,A,3519.91830,N,13920.56362,E,0.037,,150520,,,A*64
$GNVTG,,T,,M,0.037,N,0.068,K,A*37
$GNGGA,105339.00,3519.91830,N,13920.56362,E,1,08,2.38,25.5,M,39.0,M,,*76
$GNGSA,A,3,04,09,06,07,,,,,,,,,3.13,2.38,2.04*1E
$GNGSA,A,3,86,85,70,71,,,,,,,,,3.13,2.38,2.04*10
$GPGSV,2,1,08,04,27,048,46,06,68,004,42,07,06,127,41,09,56,079,45*72
$GPGSV,2,2,08,12,,,20,17,,,34,19,,,26,23,,,45*7D
$GPGSV,1,1,04,04,27,048,41,06,68,004,39,07,06,127,32,09,56,079,42*75
$GLGSV,2,1,06,65,04,220,19,70,24,033,40,71,76,006,40,72,46,225,21*6E
$GLGSV,2,2,06,85,37,131,41,86,75,017,42*60
$GLGSV,2,1,06,65,04,220,,70,24,033,,71,76,006,33,72,46,225,*65
$GLGSV,2,2,06,85,37,131,39,86,75,017,37*6D
$GNGLL,3519.91830,N,13920.56362,E,105339.00,A,A*7A
$GNRMC,105340.00,A,3519.91829,N,13920.56367,E,0.071,,150520,,,A*65
$GNVTG,,T,,M,0.071,N,0.132,K,A*3B
$GNGGA,105340.00,3519.91829,N,13920.56367,E,1,08,2.24,25.5,M,39.0,M,,*78
$GNGSA,A,3,04,09,06,07,,,,,,,,,2.98,2.24,1.96*19
$GNGSA,A,3,86,85,70,71,,,,,,,,,2.98,2.24,1.96*17
$GPGSV,2,1,08,04,27,048,46,06,68,004,42,07,06,127,41,09,56,079,45*72
$GPGSV,2,2,08,12,,,19,17,,,34,19,,,25,23,,,45*74
$GPGSV,1,1,04,04,27,048,41,06,68,004,39,07,06,127,32,09,56,079,42*75
$GLGSV,2,1,06,65,04,220,20,70,24,033,40,71,76,006,40,72,46,225,21*64
$GLGSV,2,2,06,85,37,131,41,86,75,017,42*60
$GLGSV,2,1,06,65,04,220,,70,24,033,,71,76,006,34,72,46,225,*62
$GLGSV,2,2,06,85,37,131,39,86,75,017,37*6D
$GNGLL,3519.91829,N,13920.56367,E,105340.00,A,A*79
$GNRMC,105341.00,A,3519.91828,N,13920.56372,E,0.009,,150520,,,A*6E
$GNVTG,,T,,M,0.009,N,0.016,K,A*33
$GNGGA,105341.00,3519.91828,N,13920.56372,E,1,08,2.24,25.5,M,39.0,M,,*7C
$GNGSA,A,3,04,09,06,07,,,,,,,,,2.98,2.24,1.96*19
$GNGSA,A,3,86,85,70,71,,,,,,,,,2.98,2.24,1.96*17
$GPGSV,2,1,08,04,27,048,46,06,68,004,42,07,06,127,41,09,56,079,45*72
$GPGSV,2,2,08,12,,,19,17,,,33,19,,,25,23,,,45*73
$GPGSV,1,1,04,04,27,048,41,06,68,004,39,07,06,127,32,09,56,079,42*75
$GLGSV,2,1,06,65,04,220,20,70,24,033,40,71,76,006,40,72,46,225,22*67
$GLGSV,2,2,06,85,37,131,41,86,75,017,42*60
$GLGSV,2,1,06,65,04,220,,70,24,033,,71,76,006,34,72,46,225,*62
$GLGSV,2,2,06,85,37,131,39,86,75,017,36*6C
$GNGLL,3519.91828,N,13920.56372,E,105341.00,A,A*7D
$GNRMC,105342.00,A,3519.91827,N,13920.56375,E,0.017,,150520,,,A*6A
$GNVTG,,T,,M,0.017,N,0.031,K,A*39
$GNGGA,105342.00,3519.91827,N,13920.56375,E,1,08,2.24,25.5,M,39.0,M,,*77
$GNGSA,A,3,04,09,06,07,,,,,,,,,2.98,2.24,1.96*19
$GNGSA,A,3,86,85,70,71,,,,,,,,,2.98,2.24,1.96*17
$GPGSV,2,1,08,04,27,048,46,06,68,004,42,07,06,127,41,09,56,079,45*72
$GPGSV,2,2,08,12,,,19,17,,,33,19,,,25,23,,,45*73
$GPGSV,1,1,04,04,27,048,41,06,68,004,39,07,06,127,33,09,56,079,42*74
$GLGSV,2,1,06,65,04,220,20,70,24,033,39,71,76,006,40,72,47,225,24*6E
$GLGSV,2,2,06,85,37,131,41,86,75,017,42*60
$GLGSV,2,1,06,65,04,220,,70,24,033,,71,76,006,34,72,47,225,*63
$GLGSV,2,2,06,85,37,131,39,86,75,017,35*6F
$GNGLL,3519.91827,N,13920.56375,E,105342.00,A,A*76
$GNRMC,105343.00,A,3519.91827,N,13920.56380,E,0.004,,150520,,,A*63
$GNVTG,,T,,M,0.004,N,0.008,K,A*31
$GNGGA,105343.00,3519.91827,N,13920.56380,E,1,08,2.24,25.5,M,39.0,M,,*7C
$GNGSA,A,3,04,09,06,07,,,,,,,,,2.98,2.24,1.96*19
$GNGSA,A,3,86,85,70,71,,,,,,,,,2.98,2.24,1.96*17
$GPGSV,2,1,08,04,27,048,46,06,68,004,42,07,06,127,42,09,56,079,45*71
$GPGSV,2,2,08,12,,,20,17,,,33,19,,,25,23,,,45*79
$GPGSV,1,1,04,04,27,048,41,06,68,004,39,07,06,127,33,09,56,079,42*74
$GLGSV,2,1,06,65,04,220,20,70,24,033,39,71,76,006,40,72,47,225,25*6F
$GLGSV,2,2,06,85,37,131,41,86,75,017,43*61
$GLGSV,2,1,06,65,04,220,,70,24,033,,71,76,006,34,72,47,225,*63
$GLGSV,2,2,06,85,37,131,39,86,75,017,35*6F
$GNGLL,3519.91827,N,13920.56380,E,105343.00,A,A*7D
$GNRMC,105344.00,A,3519.91826,N,13920.56384,E,0.041,,150520,,,A*60
$GNVTG,,T,,M,0.041,N,0.076,K,A*39
$GNGGA,105344.00,3519.91826,N,13920.56384,E,1,08,2.24,25.5,M,39.0,M,,*7E
$GNGSA,A,3,04,09,06,07,,,,,,,,,2.98,2.24,1.97*18
$GNGSA,A,3,86,85,70,71,,,,,,,,,2.98,2.24,1.97*16
$GPGSV,2,1,08,04,27,048,46,06,68,004,42,07,06,127,42,09,56,079,45*71
$GPGSV,2,2,08,12,,,21,17,,,33,19,,,26,23,,,45*7B
$GPGSV,1,1,04,04,27,048,41,06,68,004,39,07,06,127,33,09,56,079,42*74
$GLGSV,2,1,06,65,04,220,20,70,24,033,38,71,76,006,40,72,47,225,23*68
$GLGSV,2,2,06,85,37,131,41,86,75,017,43*61
$GLGSV,2,1,06,65,04,220,,70,24,033,,71,76,006,34,72,47,225,*63
$GLGSV,2,2,06,85,37,131,39,86,75,017,35*6F
$GNGLL,3519.91826,N,13920.56384,E,105344.00,A,A*7F
$GNRMC,105345.00,A,3519.91825,N,13920.56385,E,0.008,,150520,,,A*6E
$GNVTG,,T,,M,0.008,N,0.015,K,A*31
$GNGGA,105345.00,3519.91825,N,13920.56385,E,1,08,2.24,25.5,M,39.0,M,,*7D
$GNGSA,A,3,04,09,06,07,,,,,,,,,2.98,2.24,1.97*18
$GNGSA,A,3,86,85,70,71,,,,,,,,,2.98,2.24,1.97*16
$GPGSV,2,1,08,04,27,048,46,06,68,004,42,07,06,127,42,09,56,079,45*71
$GPGSV,2,2,08,12,,,22,17,,,33,19,,,27,23,,,46*7A
$GPGSV,1,1,04,04,27,048,41,06,68,004,39,07,06,127,33,09,56,079,42*74
$GLGSV,2,1,06,65,04,220,19,70,24,033,38,71,76,006,39,72,47,225,22*6D
$GLGSV,2,2,06,85,37,131,41,86,75,017,43*61
$GLGSV,2,1,06,65,04,220,,70,24,033,,71,76,006,34,72,47,225,*63
$GLGSV,2,2,06,85,37,131,39,86,75,017,34*6E
$GNGLL,3519.91825,N,13920.56385,E,105345.00,A,A*7C
$GNRMC,105346.00,A,3519.91823,N,13920.56385,E,0.023,,150520,,,A*62
$GNVTG,,T,,M,0.023,N,0.042,K,A*3A
$GNGGA,105346.00,3519.91823,N,13920.56385,E,1,08,2.24,25.5,M,39.0,M,,*78
$GNGSA,A,3,04,09,06,07,,,,,,,,,2.98,2.24,1.97*18
$GNGSA,A,3,86,85,70,71,,,,,,,,,2.98,2.24,1.97*16
$GPGSV,2,1,08,04,27,048,46,06,68,004,42,07,06,127,42,09,56,079,45*71
$GPGSV,2,2,08,12,,,24,17,,,33,19,,,27,23,,,46*7C
$GPGSV,1,1,04,04,27,048,41,06,68,004,39,07,06,127,33,09,56,079,42*74
$GLGSV,2,1,06,65,04,220,15,70,24,033,38,71,76,006,39,72,47,225,21*62
$GLGSV,2,2,06,85,37,131,42,86,75,017,43*62
$GLGSV,2,1,06,65,04,220,,70,24,033,,71,76,006,34,72,47,225,21*60
$GLGSV,2,2,06,85,37,131,39,86,75,017,35*6F
$GNGLL,3519.91823,N,13920.56385,E,105346.00,A,A*79
$GNRMC,105503.00,A,3519.91843,N,13920.56385,E,0.015,,150520,,,A*66
$GNVTG,,T,,M,0.015,N,0.027,K,A*3C
$GNGGA,105503.00,3519.91843,N,13920.56385,E,1,09,1.82,25.2,M,39.0,M,,*70
$GNGSA,A,3,04,09,06,07,17,,,,,,,,2.51,1.82,1.73*1E
$GNGSA,A,3,86,85,70,71,,,,,,,,,2.51,1.82,1.73*16
$GPGSV,2,1,06,04,27,047,45,06,68,005,42,07,06,126,43,09,56,078,44*72
$GPGSV,2,2,06,17,41,169,37,23,,,46*45
$GPGSV,2,1,05,04,27,047,42,06,68,005,38,07,06,126,35,09,56,078,43*7D
$GPGSV,2,2,05,17,41,169,24*47
$GLGSV,2,1,07,65,05,220,22,70,24,033,39,71,75,007,41,72,47,226,24*6C
$GLGSV,2,2,07,85,37,131,44,86,75,019,42,87,17,327,21*56
$GLGSV,2,1,07,65,05,220,19,70,24,033,,71,75,007,31,72,47,226,10*6E
$GLGSV,2,2,07,85,37,131,39,86,75,019,37,87,17,327,*5D
$GNGLL,3519.91843,N,13920.56385,E,105503.00,A,A*78
$GNRMC,105504.00,A,3519.91842,N,13920.56387,E,0.033,,150520,,,A*66
$GNVTG,,T,,M,0.033,N,0.061,K,A*3A
$GNGGA,105504.00,3519.91842,N,13920.56387,E,1,09,1.82,25.2,M,39.0,M,,*74
$GNGSA,A,3,04,09,06,07,17,,,,,,,,2.51,1.82,1.73*1E
$GNGSA,A,3,86,85,70,71,,,,,,,,,2.51,1.82,1.73*16
$GPGSV,2,1,06,04,27,047,45,06,68,005,42,07,06,126,43,09,56,078,44*72
$GPGSV,2,2,06,17,41,169,37,23,,,46*45
$GPGSV,2,1,05,04,27,047,42,06,68,005,38,07,06,126,34,09,56,078,44*7B
$GPGSV,2,2,05,17,41,169,24*47
$GLGSV,2,1,07,65,05,220,21,70,24,033,39,71,75,007,40,72,47,226,27*6D
$GLGSV,2,2,07,85,37,131,44,86,75,019,42,87,17,327,22*55
$GLGSV,2,1,07,65,05,220,19,70,24,033,,71,75,007,31,72,47,226,*6F
$GLGSV,2,2,07,85,37,131,39,86,75,019,37,87,17,327,*5D
$GNGLL,3519.91842,N,13920.56387,E,105504.00,A,A*7C
$GNTXT,01,01,02,Stopping GNSS*52
$GNTXT,01,01,02,Starting GNSS*5A
$GNRMC,,V,,,,,,,,,,N*4D
$GNVTG,,,,,,,,,N*2E
$GNGGA,,,,,,0,00,99.99,,,,,,*56
$GNGSA,A,1,,,,,,,,,,,,,99.99,99.99,99.99*2E
$GNGSA,A,1,,,,,,,,,,,,,99.99,99.99,99.99*2E
$GPGSV,1,1,00*79
$GPGSV,1,1,00*79
$GLGSV,1,1,00*65
$GLGSV,1,1,00*65
$GNGLL,,,,,,V,N*7A
$GNRMC,,V,,,,,,,,,,N*4D
$GNVTG,,,,,,,,,N*2E
$GNGGA,,,,,,0,00,99.99,,,,,,*56
$GNGSA,A,1,,,,,,,,,,,,,99.99,99.99,99.99*2E
$GNGSA,A,1,,,,,,,,,,,,,99.99,99.99,99.99*2E
$GPGSV,1,1,00*79
$GPGSV,1,1,00*79
$GLGSV,1,1,00*65
$GLGSV,1,1,00*65
$GNGLL,,,,,,V,N*7A
$GNRMC,,V,,,,,,,,,,N*4D
$GNVTG,,,,,,,,,N*2E
$GNGGA,,,,,,0,00,99.99,,,,,,*56
$GNGSA,A,1,,,,,,,,,,,,,99.99,99.99,99.99*2E
$GNGSA,A,1,,,,,,,,,,,,,99.99,99.99,99.99*2E
$GPGSV,2,1,06,04,,,45,06,,,41,07,,,43,09,,,43*74
$GPGSV,2,2,06,17,,,37,23,,,45*7D
$GPGSV,1,1,00*79
$GLGSV,1,1,03,,,,41,,,,43,,,,38*6F
$GLGSV,1,1,00*65
$GNGLL,,,,,,V,N*7A
$GNRMC,,V,,,,,,,,,,N*4D
$GNVTG,,,,,,,,,N*2E
$GNGGA,,,,,,0,00,99.99,,,,,,*56
$GNGSA,A,1,,,,,,,,,,,,,99.99,99.99,99.99*2E
$GNGSA,A,1,,,,,,,,,,,,,99.99,99.99,99.99*2E
$GPGSV,2,1,06,04,,,45,06,,,41,07,,,44,09,,,44*74
$GPGSV,2,2,06,17,,,36,23,,,45*7C
$GPGSV,1,1,00*79
$GLGSV,1,1,03,,,,43,,,,44,,,,40*65
$GLGSV,1,1,00*65
$GNGLL,,,,,,V,N*7A
$GNRMC,,V,,,,,,,,,,N*4D
$GNVTG,,,,,,,,,N*2E
$GNGGA,,,,,,0,00,99.99,,,,,,*56
$GNGSA,A,1,,,,,,,,,,,,,99.99,99.99,99.99*2E
$GNGSA,A,1,,,,,,,,,,,,,99.99,99.99,99.99*2E
$GPGSV,2,1,06,04,,,45,06,,,41,07,,,44,09,,,43*73
$GPGSV,2,2,06,17,,,35,23,,,45*7F
$GPGSV,1,1,00*79
$GLGSV,1,1,03,,,,43,,,,44,,,,40*65
$GLGSV,1,1,00*65
$GNGLL,,,,,,V,N*7A
$GNRMC,,V,,,,,,,,,,N*4D
$GNVTG,,,,,,,,,N*2E
$GNGGA,,,,,,0,00,99.99,,,,,,*56
$GNGSA,A,1,,,,,,,,,,,,,99.99,99.99,99.99*2E
$GNGSA,A,1,,,,,,,,,,,,,99.99,99.99,99.99*2E
$GPGSV,2,1,07,01,,,26,04,,,45,06,,,42,07,,,44*7A
$GPGSV,2,2,07,09,,,43,17,,,35,23,,,45*70
$GPGSV,1,1,00*79
$GLGSV,1,1,03,,,,43,,,,44,,,,40*65
$GLGSV,1,1,00*65
$GNGLL,,,,,,V,N*7A
$GNRMC,,V,,,,,,,,,,N*4D
$GNVTG,,,,,,,,,N*2E
$GNGGA,,,,,,0,00,99.99,,,,,,*56
$GNGSA,A,1,,,,,,,,,,,,,99.99,99.99,99.99*2E
$GNGSA,A,1,,,,,,,,,,,,,99.99,99.99,99.99*2E
$GPGSV,2,1,07,01,,,26,04,,,45,06,,,41,07,,,44*79
$GPGSV,2,2,07,09,,,43,17,,,35,23,,,45*70
$GPGSV,1,1,00*79
$GLGSV,1,1,03,,,,43,,,,44,,,,40*65
$GLGSV,1,1,00*65
$GNGLL,,,,,,V,N*7A
$GNRMC,,V,,,,,,,,,,N*4D
$GNVTG,,,,,,,,,N*2E
$GNGGA,,,,,,0,00,99.99,,,,,,*56
$GNGSA,A,1,,,,,,,,,,,,,99.99,99.99,99.99*2E
$GNGSA,A,1,,,,,,,,,,,,,99.99,99.99,99.99*2E
$GPGSV,2,1,06,04,,,45,06,,,42,07,,,44,09,,,43*70
$GPGSV,2,2,06,17,,,35,23,,,45*7F
$GPGSV,1,1,00*79
$GLGSV,1,1,03,,,,43,,,,44,,,,40*65
$GLGSV,1,1,00*65
$GNGLL,,,,,,V,N*7A
$GNRMC,105513.00,V,,,,,,,,,,N*60
$GNVTG,,,,,,,,,N*2E
$GNGGA,105513.00,,,,,0,00,99.99,,,,,,*7B
$GNGSA,A,1,,,,,,,,,,,,,99.99,99.99,99.99*2E
$GNGSA,A,1,,,,,,,,,,,,,99.99,99.99,99.99*2E
$GPGSV,2,1,07,02,,,30,04,,,45,06,,,42,07,,,44*7E
$GPGSV,2,2,07,09,,,44,17,,,35,23,,,44*76
$GPGSV,1,1,03,04,,,41,06,,,38,09,,,44*7F
$GLGSV,1,1,03,,,,43,,,,44,,,,40*65
$GLGSV,1,1,00*65
$GNGLL,,,,,105513.00,V,N*57
$GNRMC,105514.00,V,,,,,,,,,,N*67
$GNVTG,,,,,,,,,N*2E
$GNGGA,105514.00,,,,,0,00,99.99,,,,,,*7C
$GNGSA,A,1,,,,,,,,,,,,,99.99,99.99,99.99*2E
$GNGSA,A,1,,,,,,,,,,,,,99.99,99.99,99.99*2E
$GPGSV,2,1,07,02,,,30,04,,,45,06,,,41,07,,,44*7D
$GPGSV,2,2,07,09,,,44,17,,,35,23,,,44*76
$GPGSV,1,1,03,04,,,41,06,,,38,09,,,44*7F
$GLGSV,1,1,03,,,,43,,,,44,,,,40*65
$GLGSV,1,1,00*65
$GNGLL,,,,,105514.00,V,N*50
$GNRMC,105515.00,V,,,,,,,150520,,,N*65
$GNVTG,,,,,,,,,N*2E
$GNGGA,105515.00,,,,,0,00,99.99,,,,,,*7D
$GNGSA,A,1,,,,,,,,,,,,,99.99,99.99,99.99*2E
$GNGSA,A,1,,,,,,,,,,,,,99.99,99.99,99.99*2E
$GPGSV,2,1,08,01,,,25,02,,,30,04,,,45,06,,,41*73
$GPGSV,2,2,08,07,,,44,09,,,44,17,,,35,23,,,44*7E
$GPGSV,1,1,03,04,,,41,06,,,38,09,,,44*7F
$GLGSV,1,1,03,,,,43,,,,44,,,,40*65
$GLGSV,1,1,00*65
$GNGLL,,,,,105515.00,V,N*51
$GNRMC,105516.00,V,,,,,,,150520,,,N*66
$GNVTG,,,,,,,,,N*2E
$GNGGA,105516.00,,,,,0,00,99.99,,,,,,*7E
$GNGSA,A,1,,,,,,,,,,,,,99.99,99.99,99.99*2E
$GNGSA,A,1,,,,,,,,,,,,,99.99,99.99,99.99*2E
$GPGSV,2,1,07,02,,,31,04,,,45,06,,,42,07,,,44*7F
$GPGSV,2,2,07,09,,,44,17,,,35,23,,,44*76
$GPGSV,1,1,03,04,,,41,06,,,38,09,,,44*7F
$GLGSV,1,1,03,,,,43,,,,44,,,,41*64
$GLGSV,1,1,00*65
$GNGLL,,,,,105516.00,V,N*52
$GNRMC,105517.00,V,,,,,,,150520,,,N*67
$GNVTG,,,,,,,,,N*2E
$GNGGA,105517.00,,,,,0,00,99.99,,,,,,*7F
$GNGSA,A,1,,,,,,,,,,,,,99.99,99.99,99.99*2E
$GNGSA,A,1,,,,,,,,,,,,,99.99,99.99,99.99*2E
$GPGSV,2,1,07,02,,,30,04,,,45,06,,,42,07,,,44*7E
$GPGSV,2,2,07,09,,,44,17,,,35,23,,,44*76
$GPGSV,1,1,03,04,,,41,06,,,38,09,,,44*7F
$GLGSV,1,1,03,,,,42,,,,43,,,,40*63
$GLGSV,1,1,00*65
$GNGLL,,,,,105517.00,V,N*53
$GNRMC,105518.00,V,,,,,,,150520,,,N*68
$GNVTG,,,,,,,,,N*2E
$GNGGA,105518.00,,,,,0,00,99.99,,,,,,*70
$GNGSA,A,1,,,,,,,,,,,,,99.99,99.99,99.99*2E
$GNGSA,A,1,,,,,,,,,,,,,99.99,99.99,99.99*2E
$GPGSV,2,1,07,02,,,31,04,,,46,06,,,42,07,,,44*7C
$GPGSV,2,2,07,09,,,44,17,,,34,23,,,44*77
$GPGSV,1,1,03,04,,,41,06,,,38,09,,,44*7F
$GLGSV,1,1,03,,,,43,,,,43,,,,40*62
$GLGSV,1,1,00*65
$GNGLL,,,,,105518.00,V,N*5C
$GNRMC,105519.00,V,,,,,,,150520,,,N*69
$GNVTG,,,,,,,,,N*2E
$GNGGA,105519.00,,,,,0,00,99.99,,,,,,*71
$GNGSA,A,1,,,,,,,,,,,,,99.99,99.99,99.99*2E
$GNGSA,A,1,,,,,,,,,,,,,99.99,99.99,99.99*2E
$GPGSV,2,1,07,02,,,31,04,,,46,06,,,42,07,,,44*7C
$GPGSV,2,2,07,09,,,45,17,,,34,23,,,44*76
$GPGSV,1,1,03,04,,,41,06,,,38,09,,,44*7F
$GLGSV,1,1,03,,,,43,,,,42,,,,40*63
$GLGSV,1,1,01,,,,43*63
$GNGLL,,,,,105519.00,V,N*5D
$GNRMC,105520.00,V,,,,,,,150520,,,N*63
$GNVTG,,,,,,,,,N*2E
$GNGGA,105520.00,,,,,0,00,99.99,,,,,,*7B
$GNGSA,A,1,,,,,,,,,,,,,99.99,99.99,99.99*2E
$GNRMC,105521.00,V,,,,,,,150520,,,N*62
$GNVTG,,,,,,,,,N*2E
$GNGGA,105521.00,,,,,0,00,99.99,,,,,,*7A
$GNGSA,A,1,,,,,,,,,,,,,99.99,99.99,99.99*2E
$GNGSA,A,1,,,,,,,,,,,,,99.99,99.99,99.99*2E
$GPGSV,2,1,07,02,,,31,04,,,46,06,,,43,07,,,44*7D
$GPGSV,2,2,07,09,,,44,17,,,32,23,,,44*71
$GPGSV,1,1,03,04,,,41,06,,,38,09,,,44*7F
$GLGSV,1,1,03,,,,44,,,,43,,,,41*64
$GLGSV,1,1,01,,,,44*64
$GNGLL,,,,,105521.00,V,N*56
$GNRMC,105522.00,V,,,,,,,150520,,,N*61
$GNVTG,,,,,,,,,N*2E
$GNGGA,105522.00,,,,,0,00,99.99,,,,,,*79
$GNGSA,A,1,,,,,,,,,,,,,99.99,99.99,99.99*2E
$GNGSA,A,1,,,,,,,,,,,,,99.99,99.99,99.99*2E
$GPGSV,2,1,07,02,,,31,04,,,46,06,,,43,07,,,44*7D
$GPGSV,2,2,07,09,,,45,17,,,31,23,,,44*73
$GPGSV,1,1,03,04,,,40,06,,,38,09,,,43*79
$GLGSV,1,1,03,,,,43,,,,45,,,,41*65
$GLGSV,1,1,01,,,,43*63
$GNGLL,,,,,105522.00,V,N*55
$GNRMC,105523.00,V,,,,,,,150520,,,N*60
$GNVTG,,,,,,,,,N*2E
$GNGGA,105523.00,,,,,0,00,99.99,,,,,,*78
$GNGSA,A,1,,,,,,,,,,,,,99.99,99.99,99.99*2E
$GNGSA,A,1,,,,,,,,,,,,,99.99,99.99,99.99*2E
$GPGSV,2,1,07,02,,,31,04,,,46,06,,,42,07,,,44*7C
$GPGSV,2,2,07,09,,,45,17,,,31,23,,,44*73
$GPGSV,1,1,03,04,,,40,06,,,38,09,,,43*79
$GLGSV,1,1,03,,,,43,,,,45,,,,41*65
$GLGSV,1,1,01,,,,43*63
$GNGLL,,,,,105523.00,V,N*54
$GNRMC,105524.00,V,,,,,,,150520,,,N*67
$GNVTG,,,,,,,,,N*2E
$GNGGA,105524.00,,,,,0,00,99.99,,,,,,*7F
$GNGSA,A,1,,,,,,,,,,,,,99.99,99.99,99.99*2E
$GNGSA,A,1,,,,,,,,,,,,,99.99,99.99,99.99*2E
$GPGSV,2,1,07,02,,,31,04,,,46,06,,,42,07,,,44*7C
$GPGSV,2,2,07,09,,,45,17,,,31,23,,,44*73
$GPGSV,1,1,03,04,,,40,06,,,38,09,,,44*7E
$GLGSV,1,1,03,,,,43,,,,46,,,,41*66
$GLGSV,1,1,01,,,,43*63
$GNGLL,,,,,105524.00,V,N*53
$GNRMC,105525.00,V,,,,,,,150520,,,N*66
$GNVTG,,,,,,,,,N*2E
$GNGGA,105525.00,,,,,0,00,99.99,,,,,,*7E
$GNGSA,A,1,,,,,,,,,,,,,99.99,99.99,99.99*2E
$GNGSA,A,1,,,,,,,,,,,,,99.99,99.99,99.99*2E
$GPGSV,2,1,07,02,,,32,04,,,46,06,,,42,07,,,44*7F
$GPGSV,2,2,07,09,,,45,17,,,31,23,,,44*73
$GPGSV,1,1,03,04,,,40,06,,,38,09,,,44*7E
$GLGSV,1,1,03,,,,43,,,,46,,,,41*66
$GLGSV,1,1,01,,,,43*63
$GNGLL,,,,,105525.00,V,N*52
$GNRMC,105526.00,V,,,,,,,150520,,,N*65
$GNVTG,,,,,,,,,N*2E
$GNGGA,105526.00,,,,,0,00,99.99,,,,,,*7D
$GNGSA,A,1,,,,,,,,,,,,,99.99,99.99,99.99*2E
$GNGSA,A,1,,,,,,,,,,,,,99.99,99.99,99.99*2E
$GPGSV,2,1,07,02,,,32,04,,,46,06,,,42,07,,,44*7F
$GPGSV,2,2,07,09,,,45,17,,,32,23,,,45*71
$GPGSV,1,1,03,04,,,40,06,,,37,09,,,44*71
$GLGSV,1,1,03,,,,44,,,,45,,,,41*62
$GLGSV,1,1,01,,,,44*64
$GNGLL,,,,,105526.00,V,N*51
$GNRMC,105527.00,V,,,,,,,150520,,,N*64
$GNVTG,,,,,,,,,N*2E
$GNGGA,105527.00,,,,,0,00,99.99,,,,,,*7C
$GNGSA,A,1,,,,,,,,,,,,,99.99,99.99,99.99*2E
$GNGSA,A,1,,,,,,,,,,,,,99.99,99.99,99.99*2E
$GPGSV,2,1,07,02,,,33,04,,,46,06,,,42,07,,,44*7E
$GPGSV,2,2,07,09,,,45,17,,,33,23,,,45*70
$GPGSV,1,1,03,04,,,40,06,,,37,09,,,44*71
$GLGSV,1,1,03,,,,43,,,,45,,,,41*65
$GLGSV,1,1,01,,,,43*63
$GNGLL,,,,,105527.00,V,N*50
$GNRMC,105528.00,V,,,,,,,150520,,,N*6B
$GNVTG,,,,,,,,,N*2E
$GNGGA,105528.00,,,,,0,00,99.99,,,,,,*73
$GNGSA,A,1,,,,,,,,,,,,,99.99,99.99,99.99*2E
$GNGSA,A,1,,,,,,,,,,,,,99.99,99.99,99.99*2E
$GPGSV,2,1,08,02,,,33,04,,,46,06,,,42,07,,,44*71
$GPGSV,2,2,08,08,,,26,09,,,44,17,,,33,23,,,45*72
$GPGSV,1,1,03,04,,,40,06,,,37,09,,,44*71
$GLGSV,1,1,03,,,,43,,,,44,,,,41*64
$GLGSV,1,1,01,,,,43*63
$GNGLL,,,,,105528.00,V,N*5F
$GNRMC,105529.00,V,,,,,,,150520,,,N*6A
$GNVTG,,,,,,,,,N*2E
$GNGGA,105529.00,,,,,0,00,99.99,,,,,,*72
$GNGSA,A,1,,,,,,,,,,,,,99.99,99.99,99.99*2E
$GNGSA,A,1,,,,,,,,,,,,,99.99,99.99,99.99*2E
$GPGSV,2,1,07,02,,,33,04,,,46,06,,,42,07,,,44*7E
$GPGSV,2,2,07,09,,,44,17,,,34,23,,,45*76
$GPGSV,1,1,03,04,,,40,06,,,37,09,,,44*71
$GLGSV,1,1,03,,,,43,,,,44,,,,41*64
$GLGSV,1,1,01,,,,43*63
$GNGLL,,,,,105529.00,V,N*5E
$GNRMC,105530.00,V,,,,,,,150520,,,N*62
$GNVTG,,,,,,,,,N*2E
$GNGGA,105530.00,,,,,0,00,99.99,,,,,,*7A
$GNGSA,A,1,,,,,,,,,,,,,99.99,99.99,99.99*2E
$GNGSA,A,1,,,,,,,,,,,,,99.99,99.99,99.99*2E
$GPGSV,2,1,07,02,,,33,04,,,46,06,,,42,07,,,44*7E
$GPGSV,2,2,07,09,,,44,17,,,35,23,,,45*77
$GPGSV,1,1,03,04,,,40,06,,,37,09,,,44*71
$GLGSV,1,1,03,,,,43,,,,44,,,,40*65
$GLGSV,1,1,01,,,,43*63
$GNGLL,,,,,105530.00,V,N*56
$GNRMC,105531.01,A,3519.91655,N,13920.56938,E,0.042,,150520,,,A*61
$GNVTG,,T,,M,0.042,N,0.077,K,A*3B
$GNGGA,105531.01,3519.91655,N,13920.56938,E,1,06,1.41,37.6,M,39.0,M,,*72
$GNGSA,A,3,04,06,07,09,17,02,,,,,,,2.41,1.41,1.95*1A
$GNGSA,A,3,,,,,,,,,,,,,2.41,1.41,1.95*12
$GPGSV,2,1,07,02,,,33,04,,,46,06,,,42,07,,,44*7E
$GPGSV,2,2,07,09,,,44,17,,,35,23,,,45*77
$GPGSV,1,1,03,04,,,40,06,,,37,09,,,44*71
$GLGSV,1,1,03,,,,43,,,,44,,,,40*65
$GLGSV,1,1,01,,,,43*63
$GNGLL,3519.91655,N,13920.56938,E,105531.01,A,A*7D
$GNRMC,105532.00,A,3519.91657,N,13920.56941,E,0.033,,150520,,,A*69
$GNVTG,,T,,M,0.033,N,0.062,K,A*39
$GNGGA,105532.00,3519.91657,N,13920.56941,E,1,06,1.41,37.6,M,39.0,M,,*7C
$GNGSA,A,3,04,06,07,09,17,02,,,,,,,2.41,1.41,1.95*1A
$GNGSA,A,3,,,,,,,,,,,,,2.41,1.41,1.95*12
$GPGSV,2,1,07,02,44,316,33,04,26,047,46,06,68,006,42,07,07,126,44*77
$GPGSV,2,2,07,09,56,077,44,17,41,169,35,23,,,45*7F
$GPGSV,2,1,06,02,44,316,,04,26,047,40,06,68,006,37,07,07,126,36*77
$GPGSV,2,2,06,09,56,077,44,17,41,169,*78
$GLGSV,1,1,04,,,,42,,,,45,,,,41,,,,39*69
$GLGSV,1,1,01,,,,42*62
$GNGLL,3519.91657,N,13920.56941,E,105532.00,A,A*73
$GNRMC,105533.00,A,3519.91661,N,13920.56921,E,0.068,,150520,,,A*65
$GNVTG,,T,,M,0.068,N,0.126,K,A*36
$GNGGA,105533.00,3519.91661,N,13920.56921,E,1,06,1.41,37.4,M,39.0,M,,*7C
$GNGSA,A,3,04,06,07,09,17,02,,,,,,,2.41,1.41,1.95*1A
$GNGSA,A,3,,,,,,,,,,,,,2.41,1.41,1.95*12
$GPGSV,2,1,07,02,44,316,32,04,26,047,46,06,68,006,42,07,07,126,44*76
$GPGSV,2,2,07,09,56,077,44,17,41,169,35,23,,,44*7E
$GPGSV,2,1,06,02,44,316,,04,26,047,40,06,68,006,37,07,07,126,35*74
$GPGSV,2,2,06,09,56,077,44,17,41,169,*78
$GLGSV,1,1,04,,,,42,,,,46,,,,41,,,,39*6A
$GLGSV,1,1,01,,,,42*62
$GNGLL,3519.91661,N,13920.56921,E,105533.00,A,A*71
$GNRMC,105534.00,A,3519.91661,N,13920.56914,E,0.038,,150520,,,A*61
$GNVTG,,T,,M,0.038,N,0.070,K,A*31
$GNGGA,105534.00,3519.91661,N,13920.56914,E,1,06,1.41,37.0,M,39.0,M,,*79
$GNGSA,A,3,04,06,07,09,17,02,,,,,,,2.41,1.41,1.95*1A
$GNGSA,A,3,,,,,,,,,,,,,2.41,1.41,1.95*12
$GPGSV,2,1,07,02,44,316,32,04,26,047,46,06,68,006,41,07,07,126,44*75
$GPGSV,2,2,07,09,56,077,44,17,41,169,35,23,,,44*7E
$GPGSV,2,1,06,02,44,316,,04,26,047,40,06,68,006,37,07,07,126,36*77
$GPGSV,2,2,06,09,56,077,44,17,41,169,*78
$GLGSV,1,1,04,,,,42,,,,46,,,,41,,,,39*6A
$GLGSV,1,1,01,,,,42*62
$GNGLL,3519.91661,N,13920.56914,E,105534.00,A,A*70
$GNRMC,105535.00,A,3519.91661,N,13920.56907,E,0.025,,150520,,,A*6E
$GNVTG,,T,,M,0.025,N,0.046,K,A*38
$GNGGA,105535.00,3519.91661,N,13920.56907,E,1,06,1.41,36.8,M,39.0,M,,*73
$GNGSA,A,3,04,06,07,09,17,02,,,,,,,2.41,1.41,1.95*1A
$GNGSA,A,3,,,,,,,,,,,,,2.41,1.41,1.95*12
$GPGSV,2,1,07,02,44,316,32,04,26,047,45,06,68,006,41,07,07,126,44*76
$GPGSV,2,2,07,09,56,077,44,17,41,169,35,23,,,44*7E
$GPGSV,2,1,06,02,44,316,,04,26,047,40,06,68,006,37,07,07,126,36*77
$GPGSV,2,2,06,09,56,077,44,17,41,169,*78
$GLGSV,1,1,04,,,,42,,,,46,,,,40,,,,39*6B
$GLGSV,1,1,02,,,,42,,,,46*63
$GNGLL,3519.91661,N,13920.56907,E,105535.00,A,A*73
$GNRMC,105536.00,A,3519.91662,N,13920.56899,E,0.026,,150520,,,A*6B
$GNVTG,,T,,M,0.026,N,0.049,K,A*34
$GNGGA,105536.00,3519.91662,N,13920.56899,E,1,06,1.41,36.6,M,39.0,M,,*7B
$GNGSA,A,3,04,06,07,09,17,02,,,,,,,2.41,1.41,1.95*1A
$GNGSA,A,3,,,,,,,,,,,,,2.41,1.41,1.95*12
$GPGSV,2,1,08,01,,,25,02,44,316,32,04,26,047,45,06,68,006,41*4A
$GPGSV,2,2,08,07,07,126,44,09,56,077,45,17,41,169,35,23,,,44*45
$GPGSV,2,1,06,02,44,316,,04,26,047,40,06,68,006,37,07,07,126,36*77
$GPGSV,2,2,06,09,56,077,44,17,41,169,*78
$GLGSV,1,1,04,,,,42,,,,46,,,,40,,,,39*6B
$GLGSV,1,1,02,,,,42,,,,46*63
$GNGLL,3519.91662,N,13920.56899,E,105536.00,A,A*75
$GNRMC,105537.00,A,3519.91662,N,13920.56893,E,0.020,,150520,,,A*66
$GNVTG,,T,,M,0.020,N,0.038,K,A*34
$GNGGA,105537.00,3519.91662,N,13920.56893,E,1,06,1.41,36.5,M,39.0,M,,*73
$GNGSA,A,3,04,06,07,09,17,02,,,,,,,2.41,1.41,1.95*1A
$GNGSA,A,3,,,,,,,,,,,,,2.41,1.41,1.95*12
$GPGSV,2,1,07,02,44,316,32,04,26,047,45,06,68,006,41,07,07,126,44*76
$GPGSV,2,2,07,09,56,077,45,17,41,169,35,23,,,44*7F
$GPGSV,2,1,06,02,44,316,,04,26,047,40,06,68,006,37,07,07,126,36*77
$GPGSV,2,2,06,09,56,077,44,17,41,169,19*70
$GLGSV,1,1,04,,,,42,,,,46,,,,41,,,,39*6A
$GLGSV,1,1,03,,,,42,,,,46,,,,41*67
$GNGLL,3519.91662,N,13920.56893,E,105537.00,A,A*7E
$GNRMC,105538.00,A,3519.91663,N,13920.56887,E,0.057,,150520,,,A*6D
$GNVTG,,T,,M,0.057,N,0.105,K,A*3B
$GNGGA,105538.00,3519.91663,N,13920.56887,E,1,06,1.41,36.4,M,39.0,M,,*79
$GNGSA,A,3,04,06,07,09,17,02,,,,,,,2.41,1.41,1.95*1A
$GNGSA,A,3,,,,,,,,,,,,,2.41,1.41,1.95*12
$GPGSV,2,1,07,02,44,316,32,04,26,047,45,06,68,006,41,07,07,126,44*76
$GPGSV,2,2,07,09,56,077,45,17,41,169,35,23,,,44*7F
$GPGSV,2,1,06,02,44,316,,04,26,047,40,06,68,006,37,07,07,126,36*77
$GPGSV,2,2,06,09,56,077,44,17,41,169,19*70
$GLGSV,1,1,04,,,,42,,,,45,,,,40,,,,39*68
$GLGSV,1,1,03,,,,42,,,,45,,,,40*65
$GNGLL,3519.91663,N,13920.56887,E,105538.00,A,A*75
$GNRMC,105539.00,A,3519.91665,N,13920.56880,E,0.007,,150520,,,A*68
$GNVTG,,T,,M,0.007,N,0.013,K,A*38
$GNGGA,105539.00,3519.91665,N,13920.56880,E,1,06,1.41,36.2,M,39.0,M,,*7F
$GNGSA,A,3,04,06,07,09,17,02,,,,,,,2.41,1.41,1.95*1A
$GNGSA,A,3,,,,,,,,,,,,,2.41,1.41,1.95*12
$GPGSV,2,1,07,02,44,316,32,04,26,047,45,06,68,006,41,07,07,126,43*71
$GPGSV,2,2,07,09,56,077,45,17,41,169,34,23,,,44*7E
$GPGSV,2,1,06,02,44,316,,04,26,047,41,06,68,006,37,07,07,126,36*76
$GPGSV,2,2,06,09,56,077,44,17,41,169,19*70
$GLGSV,1,1,04,,,,42,,,,44,,,,41,,,,39*68
$GLGSV,1,1,03,,,,42,,,,44,,,,41*65
$GNGLL,3519.91665,N,13920.56880,E,105539.00,A,A*75
$GNRMC,105539.00,A,3519.91665,N,13920.56883,E,0.034,,150520,,,A*6B
$GNVTG,,T,,M,0.034,N,0.062,K,A*3E
$GNGGA,105539.00,3519.91665,N,13920.56883,E,1,09,1.26,36.3,M,39.0,M,,*73
$GNGSA,A,3,04,06,07,09,17,02,,,,,,,2.06,1.26,1.63*11
$GNGSA,A,3,86,85,71,,,,,,,,,,2.06,1.26,1.63*1C
$GPGSV,2,1,07,02,44,316,33,04,26,047,45,06,68,006,41,07,07,126,43*70
$GPGSV,2,2,07,09,56,077,45,17,41,169,34,23,,,44*7E
$GPGSV,2,1,06,02,44,316,,04,26,047,41,06,68,006,37,07,07,126,36*76
$GPGSV,2,2,06,09,56,077,44,17,41,169,19*70
$GLGSV,1,1,04,70,,,40,71,,,41,85,,,44,86,,,42*64
$GLGSV,1,1,03,85,,,40,86,,,38,,,,33*6A
$GNGLL,3519.91665,N,13920.56883,E,105539.00,A,A*76
$GNRMC,105540.00,A,3519.91665,N,13920.56884,E,0.046,,150520,,,A*67
$GNVTG,,T,,M,0.046,N,0.086,K,A*31
$GNGGA,105540.00,3519.91665,N,13920.56884,E,1,09,1.26,36.3,M,39.0,M,,*7A
$GNGSA,A,3,04,06,07,09,17,02,,,,,,,2.06,1.26,1.63*11
$GNGSA,A,3,86,85,71,,,,,,,,,,2.06,1.26,1.63*1C
$GPGSV,2,1,07,02,44,316,33,04,26,047,45,06,68,006,41,07,07,126,43*70
$GPGSV,2,2,07,09,56,077,45,17,41,169,34,23,,,44*7E
$GPGSV,2,1,06,02,44,316,,04,26,047,41,06,68,006,38,07,07,126,36*79
$GPGSV,2,2,06,09,56,077,44,17,41,169,21*7B
$GLGSV,1,1,04,70,,,40,71,74,007,41,85,36,132,45,86,76,020,42*57
$GLGSV,1,1,03,71,74,007,33,85,36,132,39,86,76,020,38*50
$GNGLL,3519.91665,N,13920.56884,E,105540.00,A,A*7F
$GNRMC,105541.00,A,3519.91666,N,13920.56883,E,0.022,,150520,,,A*60
$GNVTG,,T,,M,0.022,N,0.041,K,A*38
$GNGGA,105541.00,3519.91666,N,13920.56883,E,1,09,1.26,36.3,M,39.0,M,,*7F
$GNGSA,A,3,04,06,07,09,17,02,,,,,,,2.06,1.26,1.63*11
$GNGSA,A,3,86,85,71,,,,,,,,,,2.06,1.26,1.63*1C
$GPGSV,2,1,07,02,44,316,33,04,26,047,45,06,68,006,41,07,07,126,43*70
$GPGSV,2,2,07,09,56,077,45,17,41,169,34,23,,,45*7F
$GPGSV,2,1,06,02,44,316,,04,26,047,41,06,68,006,37,07,07,126,36*76
$GPGSV,2,2,06,09,56,077,44,17,41,169,21*7B
$GLGSV,1,1,04,70,,,39,71,74,007,41,85,36,132,45,86,76,020,42*59
$GLGSV,1,1,03,71,74,007,33,85,36,132,39,86,76,020,38*50
$GNGLL,3519.91666,N,13920.56883,E,105541.00,A,A*7A
$GNRMC,105542.00,A,3519.91668,N,13920.56881,E,0.019,,150520,,,A*67
$GNVTG,,T,,M,0.019,N,0.034,K,A*32
$GNGGA,105542.00,3519.91668,N,13920.56881,E,1,09,1.26,36.3,M,39.0,M,,*70
$GNGSA,A,3,04,06,07,09,17,02,,,,,,,2.06,1.26,1.63*11
$GNGSA,A,3,86,85,71,,,,,,,,,,2.06,1.26,1.63*1C
$GPGSV,2,1,07,02,44,316,33,04,26,047,45,06,68,006,41,07,07,126,43*70
$GPGSV,2,2,07,09,56,077,45,17,41,169,34,23,,,45*7F
$GPGSV,2,1,06,02,44,316,,04,26,047,41,06,68,006,37,07,07,126,36*76
$GPGSV,2,2,06,09,56,077,44,17,41,169,22*78
$GLGSV,1,1,04,70,,,39,71,74,007,41,85,36,132,46,86,76,020,42*5A
$GLGSV,1,1,03,71,74,007,32,85,36,132,39,86,76,020,38*51
$GNGLL,3519.91668,N,13920.56881,E,105542.00,A,A*75
$GNRMC,105543.00,A,3519.91671,N,13920.56877,E,0.027,,150520,,,A*6A
$GNVTG,,T,,M,0.027,N,0.050,K,A*3D
$GNGGA,105543.00,3519.91671,N,13920.56877,E,1,09,1.26,36.2,M,39.0,M,,*71
$GNGSA,A,3,04,06,07,09,17,02,,,,,,,2.06,1.26,1.63*11
$GNGSA,A,3,86,85,71,,,,,,,,,,2.06,1.26,1.63*1C
$GPGSV,2,1,07,02,44,316,33,04,26,047,45,06,68,006,41,07,07,126,43*70
$GPGSV,2,2,07,09,56,077,45,17,41,169,35,23,,,45*7E
$GPGSV,2,1,06,02,44,316,,04,26,047,41,06,68,006,38,07,07,126,36*79
$GPGSV,2,2,06,09,56,077,44,17,41,169,23*79
$GLGSV,1,1,04,70,,,40,71,74,007,41,85,36,132,47,86,76,020,42*55
$GLGSV,1,1,03,71,74,007,32,85,36,132,40,86,76,020,38*5F
$GNGLL,3519.91671,N,13920.56877,E,105543.00,A,A*75
$GNRMC,105544.00,A,3519.91674,N,13920.56873,E,0.032,,150520,,,A*68
$GNVTG,,T,,M,0.032,N,0.060,K,A*3A
$GNGGA,105544.00,3519.91674,N,13920.56873,E,1,09,1.26,36.2,M,39.0,M,,*77
$GNGSA,A,3,04,06,07,09,17,02,,,,,,,2.06,1.26,1.63*11
$GNGSA,A,3,86,85,71,,,,,,,,,,2.06,1.26,1.63*1C
$GPGSV,2,1,08,02,44,316,33,04,26,047,45,06,68,006,40,07,07,126,43*7E
$GPGSV,2,2,08,09,56,077,45,12,13,287,,17,41,169,35,23,,,45*4D
$GPGSV,2,1,07,02,44,316,,04,26,047,41,06,68,006,38,07,07,126,36*78
$GPGSV,2,2,07,09,56,077,44,12,13,287,,17,41,169,24*43
$GLGSV,1,1,04,70,,,40,71,74,007,41,85,36,132,47,86,76,020,42*55
$GLGSV,1,1,03,71,74,007,32,85,36,132,40,86,76,020,38*5F
$GNGLL,3519.91674,N,13920.56873,E,105544.00,A,A*73
$GNRMC,105545.00,A,3519.91679,N,13920.56870,E,0.022,,150520,,,A*66
$GNVTG,,T,,M,0.022,N,0.041,K,A*38
$GNGGA,105545.00,3519.91679,N,13920.56870,E,1,09,1.25,36.3,M,39.0,M,,*7A
$GNGSA,A,3,04,06,07,09,17,02,,,,,,,2.01,1.25,1.58*1D
$GNGSA,A,3,86,85,71,,,,,,,,,,2.01,1.25,1.58*10
$GPGSV,2,1,08,02,44,316,33,04,26,047,45,06,68,006,40,07,07,126,43*7E
$GPGSV,2,2,08,09,56,077,45,12,13,287,,17,41,169,35,23,,,45*4D
$GPGSV,2,1,07,02,44,316,,04,26,047,41,06,68,006,38,07,07,126,36*78
$GPGSV,2,2,07,09,56,077,44,12,13,287,,17,41,169,25*42
$GLGSV,1,1,04,70,,,40,71,74,007,41,85,36,132,47,86,76,020,42*55
$GLGSV,1,1,03,71,74,007,32,85,36,132,40,86,76,020,38*5F
$GNGLL,3519.91679,N,13920.56870,E,105545.00,A,A*7C
$GNRMC,105546.00,A,3519.91684,N,13920.56867,E,0.040,,150520,,,A*65
$GNVTG,,T,,M,0.040,N,0.074,K,A*3A
$GNGGA,105546.00,3519.91684,N,13920.56867,E,1,09,1.25,36.3,M,39.0,M,,*7D
$GNGSA,A,3,04,06,07,09,17,02,,,,,,,2.01,1.25,1.58*1D
$GNGSA,A,3,86,85,71,,,,,,,,,,2.01,1.25,1.58*10
$GPGSV,2,1,08,02,44,316,33,04,26,047,45,06,68,006,40,07,07,126,44*79
$GPGSV,2,2,08,09,56,077,45,12,13,287,,17,41,169,35,23,,,45*4D
$GPGSV,2,1,07,02,44,316,,04,26,047,41,06,68,006,38,07,07,126,36*78
$GPGSV,2,2,07,09,56,077,44,12,13,287,,17,41,169,26*41
$GLGSV,1,1,04,70,23,033,40,71,74,007,41,85,36,132,47,86,76,020,42*64
$GLGSV,1,1,04,70,23,033,,71,74,007,32,85,36,132,40,86,76,020,38*6E
$GNGLL,3519.91684,N,13920.56867,E,105546.00,A,A*7B
$GNRMC,105547.00,A,3519.91687,N,13920.56859,E,0.022,,150520,,,A*6E
$GNVTG,,T,,M,0.022,N,0.040,K,A*39
$GNGGA,105547.00,3519.91687,N,13920.56859,E,1,09,1.25,36.2,M,39.0,M,,*73
$GNRMC,105521.00,V,,,,,,,150520,,,N*62
$GNVTG,,,,,,,,,N*2E
$GNGGA,105521.00,,,,,0,00,99.99,,,,,,*7A
$GNGSA,A,1,,,,,,,,,,,,,99.99,99.99,99.99*2E
$GNGSA,A,1,,,,,,,,,,,,,99.99,99.99,99.99*2E
$GPGSV,2,1,07,02,,,31,04,,,46,06,,,43,07,,,44*7D
$GPGSV,2,2,07,09,,,44,17,,,32,23,,,44*71
$GPGSV,1,1,03,04,,,41,06,,,38,09,,,44*7F
$GLGSV,1,1,03,,,,44,,,,43,,,,41*64
$GLGSV,1,1,01,,,,44*64
$GNGLL,,,,,105521.00,V,N*56
$GNRMC,105522.00,V,,,,,,,150520,,,N*61
$GNVTG,,,,,,,,,N*2E
$GNGGA,105522.00,,,,,0,00,99.99,,,,,,*79
$GNGSA,A,1,,,,,,,,,,,,,99.99,99.99,99.99*2E
$GNGSA,A,1,,,,,,,,,,,,,99.99,99.99,99.99*2E
$GPGSV,2,1,07,02,,,31,04,,,46,06,,,43,07,,,44*7D
$GPGSV,2,2,07,09,,,45,17,,,31,23,,,44*73
$GPGSV,1,1,03,04,,,40,06,,,38,09,,,43*79
$GLGSV,1,1,03,,,,43,,,,45,,,,41*65
$GLGSV,1,1,01,,,,43*63
$GNGLL,,,,,105522.00,V,N*55
$GNRMC,105523.00,V,,,,,,,150520,,,N*60
$GNVTG,,,,,,,,,N*2E
$GNGGA,105523.00,,,,,0,00,99.99,,,,,,*78
$GNGSA,A,1,,,,,,,,,,,,,99.99,99.99,99.99*2E
$GNGSA,A,1,,,,,,,,,,,,,99.99,99.99,99.99*2E
$GPGSV,2,1,07,02,,,31,04,,,46,06,,,42,07,,,44*7C
$GPGSV,2,2,07,09,,,45,17,,,31,23,,,44*73
$GPGSV,1,1,03,04,,,40,06,,,38,09,,,43*79
$GLGSV,1,1,03,,,,43,,,,45,,,,41*65
$GLGSV,1,1,01,,,,43*63
$GNGLL,,,,,105523.00,V,N*54
$GNRMC,105524.00,V,,,,,,,150520,,,N*67
$GNVTG,,,,,,,,,N*2E
$GNGGA,105524.00,,,,,0,00,99.99,,,,,,*7F
$GNGSA,A,1,,,,,,,,,,,,,99.99,99.99,99.99*2E
$GNGSA,A,1,,,,,,,,,,,,,99.99,99.99,99.99*2E
$GPGSV,2,1,07,02,,,31,04,,,46,06,,,42,07,,,44*7C
$GPGSV,2,2,07,09,,,45,17,,,31,23,,,44*73
$GPGSV,1,1,03,04,,,40,06,,,38,09,,,44*7E
$GLGSV,1,1,03,,,,43,,,,46,,,,41*66
$GLGSV,1,1,01,,,,43*63
$GNGLL,,,,,105524.00,V,N*53
$GNRMC,105525.00,V,,,,,,,150520,,,N*66
$GNVTG,,,,,,,,,N*2E
$GNGGA,105525.00,,,,,0,00,99.99,,,,,,*7E
$GNGSA,A,1,,,,,,,,,,,,,99.99,99.99,99.99*2E
$GNGSA,A,1,,,,,,,,,,,,,99.99,99.99,99.99*2E
$GPGSV,2,1,07,02,,,32,04,,,46,06,,,42,07,,,44*7F
$GPGSV,2,2,07,09,,,45,17,,,31,23,,,44*73
$GPGSV,1,1,03,04,,,40,06,,,38,09,,,44*7E
$GLGSV,1,1,03,,,,43,,,,46,,,,41*66
$GLGSV,1,1,01,,,,43*63
$GNGLL,,,,,105525.00,V,N*52
$GNRMC,105526.00,V,,,,,,,150520,,,N*65
$GNVTG,,,,,,,,,N*2E
$GNGGA,105526.00,,,,,0,00,99.99,,,,,,*7D
$GNGSA,A,1,,,,,,,,,,,,,99.99,99.99,99.99*2E
$GNGSA,A,1,,,,,,,,,,,,,99.99,99.99,99.99*2E
$GPGSV,2,1,07,02,,,32,04,,,46,06,,,42,07,,,44*7F
$GPGSV,2,2,07,09,,,45,17,,,32,23,,,45*71
$GPGSV,1,1,03,04,,,40,06,,,37,09,,,44*71
$GLGSV,1,1,03,,,,44,,,,45,,,,41*62
$GLGSV,1,1,01,,,,44*64
$GNGLL,,,,,105526.00,V,N*51
$GNRMC,105527.00,V,,,,,,,150520,,,N*64
$GNVTG,,,,,,,,,N*2E
$GNGGA,105527.00,,,,,0,00,99.99,,,,,,*7C
$GNGSA,A,1,,,,,,,,,,,,,99.99,99.99,99.99*2E
$GNGSA,A,1,,,,,,,,,,,,,99.99,99.99,99.99*2E
$GPGSV,2,1,07,02,,,33,04,,,46,06,,,42,07,,,44*7E
$GPGSV,2,2,07,09,,,45,17,,,33,23,,,45*70
$GPGSV,1,1,03,04,,,40,06,,,37,09,,,44*71
$GLGSV,1,1,03,,,,43,,,,45,,,,41*65
$GLGSV,1,1,01,,,,43*63
$GNGLL,,,,,105527.00,V,N*50
$GNRMC,105528.00,V,,,,,,,150520,,,N*6B
$GNVTG,,,,,,,,,N*2E
$GNGGA,105528.00,,,,,0,00,99.99,,,,,,*73
$GNGSA,A,1,,,,,,,,,,,,,99.99,99.99,99.99*2E
$GNGSA,A,1,,,,,,,,,,,,,99.99,99.99,99.99*2E
$GPGSV,2,1,08,02,,,33,04,,,46,06,,,42,07,,,44*71
$GPGSV,2,2,08,08,,,26,09,,,44,17,,,33,23,,,45*72
$GPGSV,1,1,03,04,,,40,06,,,37,09,,,44*71
$GLGSV,1,1,03,,,,43,,,,44,,,,41*64
$GLGSV,1,1,01,,,,43*63
$GNGLL,,,,,105528.00,V,N*5F
$GNRMC,105529.00,V,,,,,,,150520,,,N*6A
$GNVTG,,,,,,,,,N*2E
$GNGGA,105529.00,,,,,0,00,99.99,,,,,,*72
$GNGSA,A,1,,,,,,,,,,,,,99.99,99.99,99.99*2E
$GNGSA,A,1,,,,,,,,,,,,,99.99,99.99,99.99*2E
$GPGSV,2,1,07,02,,,33,04,,,46,06,,,42,07,,,44*7E
$GPGSV,2,2,07,09,,,44,17,,,34,23,,,45*76
$GPGSV,1,1,03,04,,,40,06,,,37,09,,,44*71
$GLGSV,1,1,03,,,,43,,,,44,,,,41*64
$GLGSV,1,1,01,,,,43*63
$GNGLL,,,,,105529.00,V,N*5E
$GNRMC,105530.00,V,,,,,,,150520,,,N*62
$GNVTG,,,,,,,,,N*2E
$GNGGA,105530.00,,,,,0,00,99.99,,,,,,*7A
$GNGSA,A,1,,,,,,,,,,,,,99.99,99.99,99.99*2E
$GNGSA,A,1,,,,,,,,,,,,,99.99,99.99,99.99*2E
$GPGSV,2,1,07,02,,,33,04,,,46,06,,,42,07,,,44*7E
$GPGSV,2,2,07,09,,,44,17,,,35,23,,,45*77
$GPGSV,1,1,03,04,,,40,06,,,37,09,,,44*71
$GLGSV,1,1,03,,,,43,,,,44,,,,40*65
$GLGSV,1,1,01,,,,43*63
$GNGLL,,,,,105530.00,V,N*56
$GNRMC,105531.01,A,3519.91655,N,13920.56938,E,0.042,,150520,,,A*61
$GNVTG,,T,,M,0.042,N,0.077,K,A*3B
$GNGGA,105531.01,3519.91655,N,13920.56938,E,1,06,1.41,37.6,M,39.0,M,,*72
$GNGSA,A,3,04,06,07,09,17,02,,,,,,,2.41,1.41,1.95*1A
$GNGSA,A,3,,,,,,,,,,,,,2.41,1.41,1.95*12
$GPGSV,2,1,07,02,,,33,04,,,46,06,,,42,07,,,44*7E
$GPGSV,2,2,07,09,,,44,17,,,35,23,,,45*77
$GPGSV,1,1,03,04,,,40,06,,,37,09,,,44*71
$GLGSV,1,1,03,,,,43,,,,44,,,,40*65
$GLGSV,1,1,01,,,,43*63
$GNGLL,3519.91655,N,13920.56938,E,105531.01,A,A*7D
$GNRMC,105532.00,A,3519.91657,N,13920.56941,E,0.033,,150520,,,A*69
$GNVTG,,T,,M,0.033,N,0.062,K,A*39
$GNGGA,105532.00,3519.91657,N,13920.56941,E,1,06,1.41,37.6,M,39.0,M,,*7C
$GNGSA,A,3,04,06,07,09,17,02,,,,,,,2.41,1.41,1.95*1A
$GNGSA,A,3,,,,,,,,,,,,,2.41,1.41,1.95*12
$GPGSV,2,1,07,02,44,316,33,04,26,047,46,06,68,006,42,07,07,126,44*77
$GPGSV,2,2,07,09,56,077,44,17,41,169,35,23,,,45*7F
$GPGSV,2,1,06,02,44,316,,04,26,047,40,06,68,006,37,07,07,126,36*77
$GPGSV,2,2,06,09,56,077,44,17,41,169,*78
$GLGSV,1,1,04,,,,42,,,,45,,,,41,,,,39*69
$GLGSV,1,1,01,,,,42*62
$GNGLL,3519.91657,N,13920.56941,E,105532.00,A,A*73
$GNRMC,105533.00,A,3519.91661,N,13920.56921,E,0.068,,150520,,,A*65
$GNVTG,,T,,M,0.068,N,0.126,K,A*36
$GNGGA,105533.00,3519.91661,N,13920.56921,E,1,06,1.41,37.4,M,39.0,M,,*7C
$GNGSA,A,3,04,06,07,09,17,02,,,,,,,2.41,1.41,1.95*1A
$GNGSA,A,3,,,,,,,,,,,,,2.41,1.41,1.95*12
$GPGSV,2,1,07,02,44,316,32,04,26,047,46,06,68,006,42,07,07,126,44*76
$GPGSV,2,2,07,09,56,077,44,17,41,169,35,23,,,44*7E
$GPGSV,2,1,06,02,44,316,,04,26,047,40,06,68,006,37,07,07,126,35*74
$GPGSV,2,2,06,09,56,077,44,17,41,169,*78
$GLGSV,1,1,04,,,,42,,,,46,,,,41,,,,39*6A
$GLGSV,1,1,01,,,,42*62
$GNGLL,3519.91661,N,13920.56921,E,105533.00,A,A*71
$GNRMC,105534.00,A,3519.91661,N,13920.56914,E,0.038,,150520,,,A*61
$GNVTG,,T,,M,0.038,N,0.070,K,A*31
$GNGGA,105534.00,3519.91661,N,13920.56914,E,1,06,1.41,37.0,M,39.0,M,,*79
$GNGSA,A,3,04,06,07,09,17,02,,,,,,,2.41,1.41,1.95*1A
$GNGSA,A,3,,,,,,,,,,,,,2.41,1.41,1.95*12
$GPGSV,2,1,07,02,44,316,32,04,26,047,46,06,68,006,41,07,07,126,44*75
$GPGSV,2,2,07,09,56,077,44,17,41,169,35,23,,,44*7E
$GPGSV,2,1,06,02,44,316,,04,26,047,40,06,68,006,37,07,07,126,36*77
$GPGSV,2,2,06,09,56,077,44,17,41,169,*78
$GLGSV,1,1,04,,,,42,,,,46,,,,41,,,,39*6A
$GLGSV,1,1,01,,,,42*62
$GNGLL,3519.91661,N,13920.56914,E,105534.00,A,A*70
$GNRMC,105535.00,A,3519.91661,N,13920.56907,E,0.025,,150520,,,A*6E
$GNVTG,,T,,M,0.025,N,0.046,K,A*38
$GNGGA,105535.00,3519.91661,N,13920.56907,E,1,06,1.41,36.8,M,39.0,M,,*73
$GNGSA,A,3,04,06,07,09,17,02,,,,,,,2.41,1.41,1.95*1A
$GNGSA,A,3,,,,,,,,,,,,,2.41,1.41,1.95*12
$GPGSV,2,1,07,02,44,316,32,04,26,047,45,06,68,006,41,07,07,126,44*76
$GPGSV,2,2,07,09,56,077,44,17,41,169,35,23,,,44*7E
$GPGSV,2,1,06,02,44,316,,04,26,047,40,06,68,006,37,07,07,126,36*77
$GPGSV,2,2,06,09,56,077,44,17,41,169,*78
$GLGSV,1,1,04,,,,42,,,,46,,,,40,,,,39*6B
$GLGSV,1,1,02,,,,42,,,,46*63
$GNGLL,3519.91661,N,13920.56907,E,105535.00,A,A*73
$GNRMC,105536.00,A,3519.91662,N,13920.56899,E,0.026,,150520,,,A*6B
$GNVTG,,T,,M,0.026,N,0.049,K,A*34
$GNGGA,105536.00,3519.91662,N,13920.56899,E,1,06,1.41,36.6,M,39.0,M,,*7B
$GNGSA,A,3,04,06,07,09,17,02,,,,,,,2.41,1.41,1.95*1A
$GNGSA,A,3,,,,,,,,,,,,,2.41,1.41,1.95*12
$GPGSV,2,1,08,01,,,25,02,44,316,32,04,26,047,45,06,68,006,41*4A
$GPGSV,2,2,08,07,07,126,44,09,56,077,45,17,41,169,35,23,,,44*45
$GPGSV,2,1,06,02,44,316,,04,26,047,40,06,68,006,37,07,07,126,36*77
$GPGSV,2,2,06,09,56,077,44,17,41,169,*78
$GLGSV,1,1,04,,,,42,,,,46,,,,40,,,,39*6B
$GLGSV,1,1,02,,,,42,,,,46*63
$GNGLL,3519.91662,N,13920.56899,E,105536.00,A,A*75
$GNRMC,105537.00,A,3519.91662,N,13920.56893,E,0.020,,150520,,,A*66
$GNVTG,,T,,M,0.020,N,0.038,K,A*34
$GNGGA,105537.00,3519.91662,N,13920.56893,E,1,06,1.41,36.5,M,39.0,M,,*73
$GNGSA,A,3,04,06,07,09,17,02,,,,,,,2.41,1.41,1.95*1A
$GNGSA,A,3,,,,,,,,,,,,,2.41,1.41,1.95*12
$GPGSV,2,1,07,02,44,316,32,04,26,047,45,06,68,006,41,07,07,126,44*76
$GPGSV,2,2,07,09,56,077,45,17,41,169,35,23,,,44*7F
$GPGSV,2,1,06,02,44,316,,04,26,047,40,06,68,006,37,07,07,126,36*77
$GPGSV,2,2,06,09,56,077,44,17,41,169,19*70
$GLGSV,1,1,04,,,,42,,,,46,,,,41,,,,39*6A
$GLGSV,1,1,03,,,,42,,,,46,,,,41*67
$GNGLL,3519.91662,N,13920.56893,E,105537.00,A,A*7E
$GNRMC,105538.00,A,3519.91663,N,13920.56887,E,0.057,,150520,,,A*6D
$GNVTG,,T,,M,0.057,N,0.105,K,A*3B
$GNGGA,105538.00,3519.91663,N,13920.56887,E,1,06,1.41,36.4,M,39.0,M,,*79
$GNGSA,A,3,04,06,07,09,17,02,,,,,,,2.41,1.41,1.95*1A
$GNGSA,A,3,,,,,,,,,,,,,2.41,1.41,1.95*12
$GPGSV,2,1,07,02,44,316,32,04,26,047,45,06,68,006,41,07,07,126,44*76
$GPGSV,2,2,07,09,56,077,45,17,41,169,35,23,,,44*7F
$GPGSV,2,1,06,02,44,316,,04,26,047,40,06,68,006,37,07,07,126,36*77
$GPGSV,2,2,06,09,56,077,44,17,41,169,19*70
$GLGSV,1,1,04,,,,42,,,,45,,,,40,,,,39*68
$GLGSV,1,1,03,,,,42,,,,45,,,,40*65
$GNGLL,3519.91663,N,13920.56887,E,105538.00,A,A*75
$GNRMC,105539.00,A,3519.91665,N,13920.56880,E,0.007,,150520,,,A*68
$GNVTG,,T,,M,0.007,N,0.013,K,A*38
$GNGGA,105539.00,3519.91665,N,13920.56880,E,1,06,1.41,36.2,M,39.0,M,,*7F
$GNGSA,A,3,04,06,07,09,17,02,,,,,,,2.41,1.41,1.95*1A
$GNGSA,A,3,,,,,,,,,,,,,2.41,1.41,1.95*12
$GPGSV,2,1,07,02,44,316,32,04,26,047,45,06,68,006,41,07,07,126,43*71
$GPGSV,2,2,07,09,56,077,45,17,41,169,34,23,,,44*7E
$GPGSV,2,1,06,02,44,316,,04,26,047,41,06,68,006,37,07,07,126,36*76
$GPGSV,2,2,06,09,56,077,44,17,41,169,19*70
$GLGSV,1,1,04,,,,42,,,,44,,,,41,,,,39*68
$GLGSV,1,1,03,,,,42,,,,44,,,,41*65
$GNGLL,3519.91665,N,13920.56880,E,105539.00,A,A*75
$GNRMC,105539.00,A,3519.91665,N,13920.56883,E,0.034,,150520,,,A*6B
$GNVTG,,T,,M,0.034,N,0.062,K,A*3E
$GNGGA,105539.00,3519.91665,N,13920.56883,E,1,09,1.26,36.3,M,39.0,M,,*73
$GNGSA,A,3,04,06,07,09,17,02,,,,,,,2.06,1.26,1.63*11
$GNGSA,A,3,86,85,71,,,,,,,,,,2.06,1.26,1.63*1C
$GPGSV,2,1,07,02,44,316,33,04,26,047,45,06,68,006,41,07,07,126,43*70
$GPGSV,2,2,07,09,56,077,45,17,41,169,34,23,,,44*7E
$GPGSV,2,1,06,02,44,316,,04,26,047,41,06,68,006,37,07,07,126,36*76
$GPGSV,2,2,06,09,56,077,44,17,41,169,19*70
$GLGSV,1,1,04,70,,,40,71,,,41,85,,,44,86,,,42*64
$GLGSV,1,1,03,85,,,40,86,,,38,,,,33*6A
$GNGLL,3519.91665,N,13920.56883,E,105539.00,A,A*76
$GNRMC,105540.00,A,3519.91665,N,13920.56884,E,0.046,,150520,,,A*67
$GNVTG,,T,,M,0.046,N,0.086,K,A*31
$GNGGA,105540.00,3519.91665,N,13920.56884,E,1,09,1.26,36.3,M,39.0,M,,*7A
$GNGSA,A,3,04,06,07,09,17,02,,,,,,,2.06,1.26,1.63*11
$GNGSA,A,3,86,85,71,,,,,,,,,,2.06,1.26,1.63*1C
$GPGSV,2,1,07,02,44,316,33,04,26,047,45,06,68,006,41,07,07,126,43*70
$GPGSV,2,2,07,09,56,077,45,17,41,169,34,23,,,44*7E
$GPGSV,2,1,06,02,44,316,,04,26,047,41,06,68,006,38,07,07,126,36*79
$GPGSV,2,2,06,09,56,077,44,17,41,169,21*7B
$GLGSV,1,1,04,70,,,40,71,74,007,41,85,36,132,45,86,76,020,42*57
$GLGSV,1,1,03,71,74,007,33,85,36,132,39,86,76,020,38*50
$GNGLL,3519.91665,N,13920.56884,E,105540.00,A,A*7F
$GNRMC,105541.00,A,3519.91666,N,13920.56883,E,0.022,,150520,,,A*60
$GNVTG,,T,,M,0.022,N,0.041,K,A*38
$GNGGA,105541.00,3519.91666,N,13920.56883,E,1,09,1.26,36.3,M,39.0,M,,*7F
$GNGSA,A,3,04,06,07,09,17,02,,,,,,,2.06,1.26,1.63*11
$GNGSA,A,3,86,85,71,,,,,,,,,,2.06,1.26,1.63*1C
$GPGSV,2,1,07,02,44,316,33,04,26,047,45,06,68,006,41,07,07,126,43*70
$GPGSV,2,2,07,09,56,077,45,17,41,169,34,23,,,45*7F
$GPGSV,2,1,06,02,44,316,,04,26,047,41,06,68,006,37,07,07,126,36*76
$GPGSV,2,2,06,09,56,077,44,17,41,169,21*7B
$GLGSV,1,1,04,70,,,39,71,74,007,41,85,36,132,45,86,76,020,42*59
$GLGSV,1,1,03,71,74,007,33,85,36,132,39,86,76,020,38*50
$GNGLL,3519.91666,N,13920.56883,E,105541.00,A,A*7A
$GNRMC,105542.00,A,3519.91668,N,13920.56881,E,0.019,,150520,,,A*67
$GNVTG,,T,,M,0.019,N,0.034,K,A*32
$GNGGA,105542.00,3519.91668,N,13920.56881,E,1,09,1.26,36.3,M,39.0,M,,*70
$GNGSA,A,3,04,06,07,09,17,02,,,,,,,2.06,1.26,1.63*11
$GNGSA,A,3,86,85,71,,,,,,,,,,2.06,1.26,1.63*1C
$GPGSV,2,1,07,02,44,316,33,04,26,047,45,06,68,006,41,07,07,126,43*70
$GPGSV,2,2,07,09,56,077,45,17,41,169,34,23,,,45*7F
$GPGSV,2,1,06,02,44,316,,04,26,047,41,06,68,006,37,07,07,126,36*76
$GPGSV,2,2,06,09,56,077,44,17,41,169,22*78
$GLGSV,1,1,04,70,,,39,71,74,007,41,85,36,132,46,86,76,020,42*5A
$GLGSV,1,1,03,71,74,007,32,85,36,132,39,86,76,020,38*51
$GNGLL,3519.91668,N,13920.56881,E,105542.00,A,A*75
$GNRMC,105543.00,A,3519.91671,N,13920.56877,E,0.027,,150520,,,A*6A
$GNVTG,,T,,M,0.027,N,0.050,K,A*3D
$GNGGA,105543.00,3519.91671,N,13920.56877,E,1,09,1.26,36.2,M,39.0,M,,*71
$GNGSA,A,3,04,06,07,09,17,02,,,,,,,2.06,1.26,1.63*11
$GNGSA,A,3,86,85,71,,,,,,,,,,2.06,1.26,1.63*1C
$GPGSV,2,1,07,02,44,316,33,04,26,047,45,06,68,006,41,07,07,126,43*70
$GPGSV,2,2,07,09,56,077,45,17,41,169,35,23,,,45*7E
$GPGSV,2,1,06,02,44,316,,04,26,047,41,06,68,006,38,07,07,126,36*79
$GPGSV,2,2,06,09,56,077,44,17,41,169,23*79
$GLGSV,1,1,04,70,,,40,71,74,007,41,85,36,132,47,86,76,020,42*55
$GLGSV,1,1,03,71,74,007,32,85,36,132,40,86,76,020,38*5F
$GNGLL,3519.91671,N,13920.56877,E,105543.00,A,A*75
$GNRMC,105544.00,A,3519.91674,N,13920.56873,E,0.032,,150520,,,A*68
$GNVTG,,T,,M,0.032,N,0.060,K,A*3A
$GNGGA,105544.00,3519.91674,N,13920.56873,E,1,09,1.26,36.2,M,39.0,M,,*77
$GNGSA,A,3,04,06,07,09,17,02,,,,,,,2.06,1.26,1.63*11
$GNGSA,A,3,86,85,71,,,,,,,,,,2.06,1.26,1.63*1C
$GPGSV,2,1,08,02,44,316,33,04,26,047,45,06,68,006,40,07,07,126,43*7E
$GPGSV,2,2,08,09,56,077,45,12,13,287,,17,41,169,35,23,,,45*4D
$GPGSV,2,1,07,02,44,316,,04,26,047,41,06,68,006,38,07,07,126,36*78
$GPGSV,2,2,07,09,56,077,44,12,13,287,,17,41,169,24*43
$GLGSV,1,1,04,70,,,40,71,74,007,41,85,36,132,47,86,76,020,42*55
$GLGSV,1,1,03,71,74,007,32,85,36,132,40,86,76,020,38*5F
$GNGLL,3519.91674,N,13920.56873,E,105544.00,A,A*73
$GNRMC,105545.00,A,3519.91679,N,13920.56870,E,0.022,,150520,,,A*66
$GNVTG,,T,,M,0.022,N,0.041,K,A*38
$GNGGA,105545.00,3519.91679,N,13920.56870,E,1,09,1.25,36.3,M,39.0,M,,*7A
$GNGSA,A,3,04,06,07,09,17,02,,,,,,,2.01,1.25,1.58*1D
$GNGSA,A,3,86,85,71,,,,,,,,,,2.01,1.25,1.58*10
$GPGSV,2,1,08,02,44,316,33,04,26,047,45,06,68,006,40,07,07,126,43*7E
$GPGSV,2,2,08,09,56,077,45,12,13,287,,17,41,169,35,23,,,45*4D
$GPGSV,2,1,07,02,44,316,,04,26,047,41,06,68,006,38,07,07,126,36*78
$GPGSV,2,2,07,09,56,077,44,12,13,287,,17,41,169,25*42
$GLGSV,1,1,04,70,,,40,71,74,007,41,85,36,132,47,86,76,020,42*55
$GLGSV,1,1,03,71,74,007,32,85,36,132,40,86,76,020,38*5F
$GNGLL,3519.91679,N,13920.56870,E,105545.00,A,A*7C
$GNRMC,105546.00,A,3519.91684,N,13920.56867,E,0.040,,150520,,,A*65
$GNVTG,,T,,M,0.040,N,0.074,K,A*3A
$GNGGA,105546.00,3519.91684,N,13920.56867,E,1,09,1.25,36.3,M,39.0,M,,*7D
$GNGSA,A,3,04,06,07,09,17,02,,,,,,,2.01,1.25,1.58*1D
$GNGSA,A,3,86,85,71,,,,,,,,,,2.01,1.25,1.58*10
$GPGSV,2,1,08,02,44,316,33,04,26,047,45,06,68,006,40,07,07,126,44*79
$GPGSV,2,2,08,09,56,077,45,12,13,287,,17,41,169,35,23,,,45*4D
$GPGSV,2,1,07,02,44,316,,04,26,047,41,06,68,006,38,07,07,126,36*78
$GPGSV,2,2,07,09,56,077,44,12,13,287,,17,41,169,26*41
$GLGSV,1,1,04,70,23,033,40,71,74,007,41,85,36,132,47,86,76,020,42*64
$GLGSV,1,1,04,70,23,033,,71,74,007,32,85,36,132,40,86,76,020,38*6E
$GNGLL,3519.91684,N,13920.56867,E,105546.00,A,A*7B
$GNRMC,105547.00,A,3519.91687,N,13920.56859,E,0.022,,150520,,,A*6E
$GNVTG,,T,,M,0.022,N,0.040,K,A*39
$GNGGA,105547.00,3519.91687,N,13920.56859,E,1,09,1.25,36.2,M,39.0,M,,*73
$GNRMC,105548.00,A,3519.91691,N,13920.56851,E,0.009,,150520,,,A*67
$GNVTG,,T,,M,0.009,N,0.017,K,A*32
$GNGGA,105548.00,3519.91691,N,13920.56851,E,1,09,1.25,36.1,M,39.0,M,,*70
$GNGSA,A,3,04,06,07,09,17,02,,,,,,,2.01,1.25,1.58*1D
$GNGSA,A,3,86,85,71,,,,,,,,,,2.01,1.25,1.58*10
$GPGSV,2,1,08,02,44,316,32,04,26,047,45,06,68,006,40,07,07,126,43*7F
$GPGSV,2,2,08,09,56,077,45,12,13,287,,17,41,169,36,23,,,45*4E
$GPGSV,2,1,07,02,44,316,,04,26,047,41,06,68,006,38,07,07,126,36*78
$GPGSV,2,2,07,09,56,077,44,12,13,287,,17,41,169,26*41
$GLGSV,1,1,04,70,23,033,40,71,74,007,40,85,36,132,46,86,76,020,44*62
$GLGSV,1,1,04,70,23,033,,71,74,007,32,85,36,132,41,86,76,020,38*6F
$GNGLL,3519.91691,N,13920.56851,E,105548.00,A,A*74
$GNRMC,105549.00,A,3519.91694,N,13920.56840,E,0.016,,150520,,,A*6D
$GNVTG,,T,,M,0.016,N,0.029,K,A*31
$GNGGA,105549.00,3519.91694,N,13920.56840,E,1,09,1.25,35.9,M,39.0,M,,*7F
$GNGSA,A,3,04,06,07,09,17,02,,,,,,,2.01,1.25,1.58*1D
$GNGSA,A,3,86,85,71,,,,,,,,,,2.01,1.25,1.58*10
$GPGSV,2,1,08,02,44,316,32,04,26,047,45,06,68,006,40,07,07,126,43*7F
$GPGSV,2,2,08,09,56,077,45,12,13,287,,17,41,169,36,23,,,45*4E
$GPGSV,2,1,07,02,44,316,,04,26,047,41,06,68,006,38,07,07,126,36*78
$GPGSV,2,2,07,09,56,077,44,12,13,287,,17,41,169,26*41
$GLGSV,1,1,04,70,23,033,40,71,74,007,40,85,36,132,46,86,76,020,44*62
$GLGSV,1,1,04,70,23,033,,71,74,007,31,85,36,132,41,86,76,020,38*6C
$GNGLL,3519.91694,N,13920.56840,E,105549.00,A,A*70
$GNRMC,105550.00,A,3519.91698,N,13920.56826,E,0.053,,150520,,,A*68
$GNVTG,,T,,M,0.053,N,0.098,K,A*3A
$GNGGA,105550.00,3519.91698,N,13920.56826,E,1,09,1.25,35.7,M,39.0,M,,*75
$GNGSA,A,3,04,06,07,09,17,02,,,,,,,2.01,1.25,1.58*1D
$GNGSA,A,3,86,85,71,,,,,,,,,,2.01,1.25,1.58*10
$GPGSV,2,1,08,02,44,316,31,04,26,047,45,06,68,006,41,07,07,126,43*7D
$GPGSV,2,2,08,09,56,077,45,12,13,287,,17,41,169,36,23,,,45*4E
$GPGSV,2,1,07,02,44,316,,04,26,047,41,06,68,006,38,07,07,126,36*78
$GPGSV,2,2,07,09,56,077,44,12,13,287,,17,41,169,26*41
$GLGSV,1,1,04,70,23,033,40,71,74,007,40,85,36,132,46,86,76,020,44*62
$GLGSV,1,1,04,70,23,033,,71,74,007,32,85,36,132,41,86,76,020,38*6F
$GNGLL,3519.91698,N,13920.56826,E,105550.00,A,A*74
$GNRMC,105551.00,A,3519.91701,N,13920.56811,E,0.020,,150520,,,A*68
$GNVTG,,T,,M,0.020,N,0.037,K,A*3B
$GNGGA,105551.00,3519.91701,N,13920.56811,E,1,09,1.25,35.5,M,39.0,M,,*73
$GNGSA,A,3,04,06,07,09,17,02,,,,,,,2.01,1.25,1.58*1D
$GNGSA,A,3,86,85,71,,,,,,,,,,2.01,1.25,1.58*10
$GPGSV,2,1,08,02,44,316,31,04,26,047,45,06,68,007,41,07,07,126,43*7C
$GPGSV,2,2,08,09,56,077,45,12,13,287,,17,41,169,36,23,,,45*4E
$GPGSV,2,1,07,02,44,316,,04,26,047,41,06,68,007,38,07,07,126,36*79
$GPGSV,2,2,07,09,56,077,44,12,13,287,,17,41,169,26*41
$GLGSV,1,1,04,70,23,033,40,71,74,007,40,85,36,132,46,86,76,020,44*62
$GLGSV,1,1,04,70,23,033,,71,74,007,32,85,36,132,41,86,76,020,38*6F
$GNGLL,3519.91701,N,13920.56811,E,105551.00,A,A*70
$GNRMC,105552.00,A,3519.91704,N,13920.56795,E,0.013,,150520,,,A*6D
$GNVTG,,T,,M,0.013,N,0.025,K,A*38
$GNGGA,105552.00,3519.91704,N,13920.56795,E,1,09,1.25,35.2,M,39.0,M,,*71
$GNGSA,A,3,04,06,07,09,17,02,,,,,,,2.01,1.25,1.58*1D
$GNGSA,A,3,86,85,71,,,,,,,,,,2.01,1.25,1.58*10
$GPGSV,2,1,08,02,44,316,30,04,26,047,45,06,68,007,41,07,07,126,43*7D
$GPGSV,2,2,08,09,56,077,44,12,13,287,,17,41,169,36,23,,,45*4F
$GPGSV,2,1,07,02,44,316,,04,26,047,41,06,68,007,38,07,07,126,35*7A
$GPGSV,2,2,07,09,56,077,44,12,13,287,,17,41,169,26*41
$GLGSV,1,1,04,70,23,033,40,71,74,007,39,85,36,132,46,86,76,020,44*6C
$GLGSV,1,1,04,70,23,033,,71,74,007,32,85,36,132,41,86,76,020,38*6F
$GNGLL,3519.91704,N,13920.56795,E,105552.00,A,A*75
$GNRMC,105553.00,A,3519.91707,N,13920.56778,E,0.027,,150520,,,A*6B
$GNVTG,,T,,M,0.027,N,0.051,K,A*3C
$GNGGA,105553.00,3519.91707,N,13920.56778,E,1,09,1.25,35.0,M,39.0,M,,*72
$GNGSA,A,3,04,06,07,09,17,02,,,,,,,2.01,1.25,1.58*1D
$GNGSA,A,3,86,85,71,,,,,,,,,,2.01,1.25,1.58*10
$GPGSV,2,1,08,02,44,316,30,04,26,047,45,06,68,007,42,07,07,126,43*7E
$GPGSV,2,2,08,09,56,077,44,12,13,287,,17,41,169,36,23,,,45*4F
$GPGSV,2,1,07,02,44,316,,04,26,047,41,06,68,007,38,07,07,126,35*7A
$GPGSV,2,2,07,09,56,077,44,12,13,287,21,17,41,169,26*42
$GLGSV,1,1,04,70,23,033,39,71,74,007,39,85,36,132,46,86,76,020,44*62
$GLGSV,1,1,04,70,23,033,,71,74,007,32,85,36,132,40,86,76,020,38*6E
$GNGLL,3519.91707,N,13920.56778,E,105553.00,A,A*74
$GNRMC,105554.00,A,3519.91709,N,13920.56762,E,0.032,,150520,,,A*6D
$GNVTG,,T,,M,0.032,N,0.059,K,A*30
$GNGGA,105554.00,3519.91709,N,13920.56762,E,1,09,1.25,34.8,M,39.0,M,,*79
$GNGSA,A,3,04,06,07,09,17,02,,,,,,,2.01,1.25,1.58*1D
$GNGSA,A,3,86,85,71,,,,,,,,,,2.01,1.25,1.58*10
$GPGSV,2,1,08,02,44,316,30,04,26,047,45,06,68,007,42,07,07,126,43*7E
$GPGSV,2,2,08,09,56,077,44,12,13,287,16,17,41,169,36,23,,,45*48
$GPGSV,2,1,07,02,44,316,,04,26,047,42,06,68,007,38,07,07,126,35*79
$GPGSV,2,2,07,09,56,077,44,12,13,287,20,17,41,169,26*43
$GLGSV,2,1,05,70,23,033,39,71,74,007,39,72,48,227,22,85,36,132,46*63
$GLGSV,2,2,05,86,76,020,44*5D
$GLGSV,2,1,05,70,23,033,,71,74,007,32,72,48,227,,85,36,132,40*64
$GLGSV,2,2,05,86,76,020,38*56
$GNGLL,3519.91709,N,13920.56762,E,105554.00,A,A*76
$GNRMC,105555.00,A,3519.91711,N,13920.56747,E,0.006,,150520,,,A*65
$GNVTG,,T,,M,0.006,N,0.012,K,A*38
$GNGGA,105555.00,3519.91711,N,13920.56747,E,1,09,1.25,34.6,M,39.0,M,,*78
$GNGSA,A,3,04,06,07,09,17,02,,,,,,,2.01,1.25,1.58*1D
$GNGSA,A,3,86,85,71,,,,,,,,,,2.01,1.25,1.58*10
$GPGSV,2,1,08,02,44,316,29,04,26,047,45,06,68,007,42,07,07,126,43*76
$GPGSV,2,2,08,09,56,077,45,12,13,287,15,17,40,169,37,23,,,45*4A
$GPGSV,2,1,07,02,44,316,,04,26,047,42,06,68,007,38,07,07,126,36*7A
$GPGSV,2,2,07,09,56,077,44,12,13,287,20,17,40,169,26*42
$GLGSV,2,1,05,70,23,033,39,71,74,007,40,72,48,227,20,85,36,132,46*6F
$GLGSV,2,2,05,86,76,020,44*5D
$GLGSV,2,1,05,70,23,033,,71,74,007,32,72,48,227,,85,36,132,40*64
$GLGSV,2,2,05,86,76,020,38*56
$GNGLL,3519.91711,N,13920.56747,E,105555.00,A,A*79
$GNRMC,105556.00,A,3519.91712,N,13920.56733,E,0.029,,150520,,,A*6B
$GNVTG,,T,,M,0.029,N,0.053,K,A*30
$GNGGA,105556.00,3519.91712,N,13920.56733,E,1,09,1.25,34.4,M,39.0,M,,*79
$GNGSA,A,3,04,06,07,09,17,02,,,,,,,2.01,1.25,1.58*1D
$GNGSA,A,3,86,85,71,,,,,,,,,,2.01,1.25,1.58*10
$GPGSV,2,1,08,02,44,316,29,04,26,047,45,06,68,007,42,07,07,126,43*76
$GPGSV,2,2,08,09,56,077,45,12,13,287,15,17,40,169,36,23,,,45*4B
$GPGSV,2,1,07,02,44,316,,04,26,047,42,06,68,007,38,07,07,126,36*7A
$GPGSV,2,2,07,09,56,077,44,12,13,287,20,17,40,169,26*42
$GLGSV,2,1,05,70,23,033,39,71,74,007,39,72,48,227,17,85,36,132,45*66
$GLGSV,2,2,05,86,76,020,44*5D
$GLGSV,2,1,05,70,23,033,,71,74,007,31,72,48,227,,85,36,132,40*67
$GLGSV,2,2,05,86,76,020,37*59
$GNGLL,3519.91712,N,13920.56733,E,105556.00,A,A*7A
$GNRMC,105557.00,A,3519.91714,N,13920.56720,E,0.011,,150520,,,A*65
$GNVTG,,T,,M,0.011,N,0.020,K,A*3F
$GNGGA,105557.00,3519.91714,N,13920.56720,E,1,09,1.25,34.1,M,39.0,M,,*79
$GNGSA,A,3,04,06,07,09,17,02,,,,,,,2.01,1.25,1.58*1D
$GNGSA,A,3,86,85,71,,,,,,,,,,2.01,1.25,1.58*10
$GPGSV,2,1,08,02,44,316,28,04,26,047,45,06,68,007,42,07,07,126,43*77
$GPGSV,2,2,08,09,56,077,45,12,13,287,14,17,40,169,36,23,,,44*4B
$GPGSV,2,1,07,02,44,316,,04,26,047,42,06,68,007,38,07,07,126,36*7A
$GPGSV,2,2,07,09,56,077,44,12,13,287,20,17,40,169,26*42
$GLGSV,2,1,05,70,23,033,40,71,74,007,39,72,48,227,16,85,36,132,45*69
$GLGSV,2,2,05,86,76,020,44*5D
$GLGSV,2,1,05,70,23,033,,71,74,007,31,72,48,227,,85,36,132,40*67
$GLGSV,2,2,05,86,76,020,37*59
$GNGLL,3519.91714,N,13920.56720,E,105557.00,A,A*7F
$GNRMC,105558.00,A,3519.91715,N,13920.56709,E,0.030,,150520,,,A*63
$GNVTG,,T,,M,0.030,N,0.055,K,A*3E
$GNGGA,105558.00,3519.91715,N,13920.56709,E,1,09,1.25,34.0,M,39.0,M,,*7D
$GNGSA,A,3,04,06,07,09,17,02,,,,,,,2.01,1.25,1.58*1D
$GNGSA,A,3,86,85,71,,,,,,,,,,2.01,1.25,1.58*10
$GPGSV,2,1,08,02,44,316,28,04,26,047,45,06,68,007,42,07,07,126,43*77
$GPGSV,2,2,08,09,56,077,45,12,13,287,13,17,40,169,36,23,,,44*4C
$GPGSV,2,1,07,02,44,316,,04,26,047,42,06,68,007,38,07,07,126,35*79
$GPGSV,2,2,07,09,56,077,44,12,13,287,20,17,40,169,25*41
$GLGSV,2,1,05,70,23,033,40,71,74,007,39,72,48,227,16,85,36,132,45*69
$GLGSV,2,2,05,86,76,020,44*5D
$GLGSV,2,1,05,70,23,033,,71,74,007,31,72,48,227,,85,36,132,40*67
$GLGSV,2,2,05,86,76,020,37*59
$GNGLL,3519.91715,N,13920.56709,E,105558.00,A,A*7A
$GNRMC,105559.00,A,3519.91716,N,13920.56697,E,0.009,,150520,,,A*6D
$GNVTG,,T,,M,0.009,N,0.016,K,A*33
$GNGGA,105559.00,3519.91716,N,13920.56697,E,1,09,1.25,33.8,M,39.0,M,,*76
$GNGSA,A,3,04,06,07,09,17,02,,,,,,,2.01,1.25,1.58*1D
$GNGSA,A,3,86,85,71,,,,,,,,,,2.01,1.25,1.58*10
$GPGSV,2,1,08,02,44,316,27,04,26,047,46,06,68,007,42,07,07,126,43*7B
$GPGSV,2,2,08,09,56,077,45,12,13,287,11,17,40,169,36,23,,,44*4E
$GPGSV,2,1,07,02,44,316,,04,26,047,42,06,68,007,38,07,07,126,35*79
$GPGSV,2,2,07,09,56,077,44,12,13,287,19,17,40,169,25*4B
$GLGSV,2,1,05,70,23,033,40,71,74,007,39,72,48,227,14,85,36,132,45*6B
$GLGSV,2,2,05,86,76,020,44*5D
$GLGSV,2,1,05,70,23,033,,71,74,007,31,72,48,227,,85,36,132,40*67
$GLGSV,2,2,05,86,76,020,37*59
$GNGLL,3519.91716,N,13920.56697,E,105559.00,A,A*7E
$GNRMC,105600.00,A,3519.91717,N,13920.56685,E,0.033,,150520,,,A*69
$GNVTG,,T,,M,0.033,N,0.061,K,A*3A
$GNGGA,105600.00,3519.91717,N,13920.56685,E,1,09,1.25,33.6,M,39.0,M,,*75
$GNGSA,A,3,04,06,07,09,17,02,,,,,,,2.01,1.25,1.58*1D
$GNGSA,A,3,86,85,71,,,,,,,,,,2.01,1.25,1.58*10
$GPGSV,2,1,08,02,44,316,26,04,26,047,46,06,68,007,42,07,07,126,42*7B
$GPGSV,2,2,08,09,56,077,45,12,13,287,10,17,40,169,36,23,,,44*4F
$GPGSV,2,1,07,02,44,316,,04,26,047,42,06,68,007,38,07,07,126,35*79
$GPGSV,2,2,07,09,56,077,44,12,13,287,19,17,40,169,25*4B
$GLGSV,2,1,05,70,23,033,40,71,74,007,39,72,48,227,14,85,36,132,45*6B
$GLGSV,2,2,05,86,76,020,44*5D
$GLGSV,2,1,05,70,23,033,,71,74,007,31,72,48,227,,85,36,132,40*67
$GLGSV,2,2,05,86,76,020,37*59
$GNGLL,3519.91717,N,13920.56685,E,105600.00,A,A*73
